{
  "version": 0.6,
  "generator": "Overpass API",
  "osm3s": {
    "timestamp_osm_base": "2016-12-30T09:36:02Z",
    "copyright": "The data included in this document is from www.openstreetmap.org. The data is made available under ODbL."
  },
  "elements": [

{
  "type": "node",
  "id": 2838339879,
  "lat": -54.9731295,
  "lon": -70.2715591,
  "tags": {
    "ele": "150",
    "name": "Volcán Fueguino o Cook",
    "natural": "volcano",
    "volcano:last_eruption": "1820-11-25",
    "volcano:status": "active",
    "volcano:type": "scoria",
    "wikipedia": "es:Volcán Fueguino"
  }
},
{
  "type": "node",
  "id": 2838330973,
  "lat": -52.3272518,
  "lon": -73.3706594,
  "tags": {
    "name": "Monte Burney",
    "natural": "volcano"
  }
},
{
  "type": "node",
  "id": 2838316869,
  "lat": -50.9547445,
  "lon": -73.5010797,
  "tags": {
    "name": "Volcan Reclus",
    "natural": "volcano"
  }
},
{
  "type": "node",
  "id": 4446556226,
  "lat": -52.0815355,
  "lon": -69.6975775,
  "tags": {
    "ele": "282",
    "name": "Cerro del Diablo o Negro",
    "natural": "volcano",
    "volcano:last_eruption": "~-5550",
    "volcano:status": "extinct",
    "volcano:type": "scoria"
  }
},
{
  "type": "node",
  "id": 96196308,
  "lat": -52.1515853,
  "lon": -69.4859916,
  "tags": {
    "ele": "279",
    "name": "Monte Aymond",
    "natural": "volcano",
    "volcano:last_eruption": "~-5550",
    "volcano:status": "extinct"
  }
},
{
  "type": "node",
  "id": 3243890447,
  "lat": -62.1027744,
  "lon": -57.9284823,
  "tags": {
    "name": "Deacon Peak",
    "name:en": "Deacon Peak",
    "natural": "volcano",
    "wikidata": "Q595659"
  }
},
{
  "type": "node",
  "id": 3243891981,
  "lat": -62.0576314,
  "lon": -56.7559451,
  "tags": {
    "natural": "volcano"
  }
},
{
  "type": "node",
  "id": 2838310231,
  "lat": -50.2845180,
  "lon": -73.6684139,
  "tags": {
    "name": "Volcan Aguilera",
    "natural": "volcano"
  }
},
{
  "type": "node",
  "id": 2838304257,
  "lat": -49.0152333,
  "lon": -73.5167402,
  "tags": {
    "ele": "3623",
    "name": "Volcán Lautaro",
    "natural": "volcano"
  }
},
{
  "type": "node",
  "id": 2838299936,
  "lat": -47.1970813,
  "lon": -73.4723198,
  "tags": {
    "name": "Volcan Arenales",
    "natural": "volcano"
  }
},
{
  "type": "node",
  "id": 2838294806,
  "lat": -45.9181880,
  "lon": -72.8838138,
  "tags": {
    "ele": "1905",
    "name": "Volcán Hudson",
    "natural": "volcano",
    "website": "https://fr.wikipedia.org/wiki/Mont_Hudson"
  }
},
{
  "type": "node",
  "id": 2838290773,
  "lat": -45.1079363,
  "lon": -73.1668712,
  "tags": {
    "ele": "2300",
    "name": "Volcán Macá",
    "natural": "volcano"
  }
},
{
  "type": "node",
  "id": 2838290772,
  "lat": -45.0606606,
  "lon": -72.9880258,
  "tags": {
    "ele": "2090",
    "name": "Volcán Cay",
    "natural": "volcano"
  }
},
{
  "type": "node",
  "id": 2838288393,
  "lat": -44.6963564,
  "lon": -73.0738567,
  "tags": {
    "ele": "1660",
    "name": "Volcán Mentolat",
    "natural": "volcano"
  }
},
{
  "type": "node",
  "id": 2838285244,
  "lat": -44.0756080,
  "lon": -72.8598143,
  "tags": {
    "ele": "2440",
    "name": "Cerro Melimoyu",
    "natural": "volcano"
  }
},
{
  "type": "node",
  "id": 3296480607,
  "lat": -43.5032511,
  "lon": -72.8138196,
  "tags": {
    "ele": "2042",
    "name": "Volcán Yanteles",
    "natural": "volcano",
    "wikipedia": "en:Yanteles"
  }
},
{
  "type": "node",
  "id": 534474026,
  "lat": -43.1941641,
  "lon": -72.7933480,
  "tags": {
    "ele": "2300",
    "name": "Volcán Corcovado",
    "natural": "volcano"
  }
},
{
  "type": "node",
  "id": 267295885,
  "lat": -42.8376664,
  "lon": -72.6510791,
  "tags": {
    "ele": "962",
    "name": "Volcán Chaitén",
    "natural": "volcano",
    "type": "caldera"
  }
},
{
  "type": "node",
  "id": 267296481,
  "lat": -42.8114597,
  "lon": -72.4454631,
  "tags": {
    "ele": "2404",
    "name": "Volcán Michinmahuida",
    "natural": "volcano"
  }
},
{
  "type": "node",
  "id": 2838280408,
  "lat": -42.3827569,
  "lon": -72.5834215,
  "tags": {
    "name": "Volcan Huequi",
    "natural": "volcano"
  }
},
{
  "type": "node",
  "id": 2810223125,
  "lat": -41.8851498,
  "lon": -72.5873676,
  "tags": {
    "ele": "1210",
    "name": "Volcán Apagado",
    "natural": "volcano"
  }
},
{
  "type": "node",
  "id": 3438516180,
  "lat": -41.8809215,
  "lon": -72.4330545,
  "tags": {
    "ele": "1572",
    "name": "Volcán Hornopirén",
    "natural": "volcano",
    "source": "Bing"
  }
},
{
  "type": "node",
  "id": 3270448169,
  "lat": -41.7586862,
  "lon": -72.3994552,
  "tags": {
    "ele": "2187",
    "name": "Volcán Yate",
    "natural": "volcano"
  }
},
{
  "type": "node",
  "id": 86637068,
  "lat": -41.3298516,
  "lon": -72.6098255,
  "tags": {
    "ele": "2015",
    "image": "https://upload.wikimedia.org/wikipedia/commons/3/3d/Calbuco_11_Feb_2010_zoomed_in.jpg",
    "name": "Volcán Calbuco",
    "natural": "volcano",
    "source": "image",
    "volcano:status": "active",
    "volcano:type": "stratovolcano",
    "wikidata": "Q1026302",
    "wikipedia": "en:Calbuco (volcano)"
  }
},
{
  "type": "node",
  "id": 84204260,
  "lat": -41.1041871,
  "lon": -72.4975694,
  "tags": {
    "alt_name": "Osorno",
    "ele": "2652",
    "name": "Volcán Osorno",
    "name:en": "Osorno Volcano",
    "natural": "volcano",
    "wikidata": "Q858808",
    "wikipedia": "es:Volcán Osorno"
  }
},
{
  "type": "node",
  "id": 354627382,
  "lat": -40.9748060,
  "lon": -72.2659069,
  "tags": {
    "ele": "2498",
    "name": "Volcán Puntiagudo",
    "natural": "volcano"
  }
},
{
  "type": "node",
  "id": 102876088,
  "lat": -40.7752497,
  "lon": -72.1563626,
  "tags": {
    "ele": "1990",
    "name": "Volcán Casablanca",
    "natural": "volcano"
  }
},
{
  "type": "node",
  "id": 340315807,
  "lat": -41.1612847,
  "lon": -71.8877829,
  "tags": {
    "ele": "3478",
    "name": "Cerro Tronador",
    "name:en": "Tronador",
    "natural": "volcano",
    "wikidata": "Q422835",
    "wikipedia": "en:Tronador"
  }
},
{
  "type": "node",
  "id": 4363558846,
  "lat": -40.7680869,
  "lon": -71.9425668,
  "tags": {
    "name": "Cerro Pantojo",
    "name:en": "Cerro Pantoja",
    "name:fr": "Cerro Pantoja",
    "name:ka": "სერო-პანტოხა",
    "name:sk": "Cerro Pantoja",
    "name:zh": "潘托哈山",
    "natural": "volcano",
    "wikidata": "Q2946775",
    "wikipedia": "es:Cerro Pantojo"
  }
},
{
  "type": "node",
  "id": 354697830,
  "lat": -40.5834645,
  "lon": -72.1123422,
  "tags": {
    "ele": "2240",
    "name": "Volcán Puyehue",
    "natural": "volcano"
  }
},
{
  "type": "node",
  "id": 354696405,
  "lat": -40.3615409,
  "lon": -72.0758943,
  "tags": {
    "name": "Volcán Carrán",
    "natural": "volcano"
  }
},
{
  "type": "node",
  "id": 4006125199,
  "lat": -40.3607361,
  "lon": -72.0588899,
  "tags": {
    "name": "Volcán Mirador",
    "natural": "volcano"
  }
},
{
  "type": "node",
  "id": 354103287,
  "lat": -39.9436817,
  "lon": -72.0196373,
  "tags": {
    "ele": "2422",
    "name": "Volcán Mocho",
    "natural": "volcano"
  }
},
{
  "type": "node",
  "id": 354103117,
  "lat": -39.9304302,
  "lon": -72.0277311,
  "tags": {
    "ele": "2415",
    "name": "Volcán Choshuenco",
    "natural": "volcano"
  }
},
{
  "type": "node",
  "id": 511975860,
  "lat": -39.8862199,
  "lon": -71.5806049,
  "tags": {
    "ele": "2189",
    "name": "Cerro Huanquihue",
    "natural": "volcano",
    "wikipedia": "es:Grupo Huanquihue"
  }
},
{
  "type": "node",
  "id": 4325589677,
  "lat": -39.8638828,
  "lon": -71.5646959,
  "tags": {
    "name": "Achen Niyeu",
    "natural": "volcano"
  }
},
{
  "type": "node",
  "id": 4530799915,
  "lat": -39.4555121,
  "lon": -71.9397745,
  "tags": {
    "natural": "volcano"
  }
},
{
  "type": "node",
  "id": 2702757050,
  "lat": -39.4210252,
  "lon": -71.9395634,
  "tags": {
    "description": "One of Chile's most active volcanoes. Permanently snow/glacier covered. Popular hiking destication.",
    "ele": "2861",
    "last_eruption": "2015-03-03",
    "name": "Volcán Villarrica",
    "natural": "volcano",
    "ref": "357120",
    "volcano:status": "active",
    "volcano:type": "stratovolcano",
    "website": "http://www.volcano.si.edu/volcano.cfm?vn=357120",
    "wikipedia": "en:Villarrica (volcano)"
  }
},
{
  "type": "node",
  "id": 4530799925,
  "lat": -39.4138273,
  "lon": -71.8432982,
  "tags": {
    "natural": "volcano"
  }
},
{
  "type": "node",
  "id": 3375680322,
  "lat": -39.6372157,
  "lon": -71.5030569,
  "tags": {
    "ele": "3747",
    "name": "Volcán Lanín",
    "natural": "volcano"
  }
},
{
  "type": "node",
  "id": 354692776,
  "lat": -39.4970840,
  "lon": -71.7188339,
  "tags": {
    "ele": "2009",
    "name": "Volcán Quetrupillán",
    "natural": "volcano"
  }
},
{
  "type": "node",
  "id": 4530799893,
  "lat": -39.5146880,
  "lon": -71.6931427,
  "tags": {
    "natural": "volcano"
  }
},
{
  "type": "node",
  "id": 4530799894,
  "lat": -39.5105494,
  "lon": -71.6727150,
  "tags": {
    "natural": "volcano"
  }
},
{
  "type": "node",
  "id": 4530799924,
  "lat": -39.4088869,
  "lon": -71.8572886,
  "tags": {
    "natural": "volcano"
  }
},
{
  "type": "node",
  "id": 354119235,
  "lat": -38.6956910,
  "lon": -71.7304799,
  "tags": {
    "ele": "3125",
    "name": "Volcán Llaima",
    "natural": "volcano"
  }
},
{
  "type": "node",
  "id": 2107010860,
  "lat": -38.9747003,
  "lon": -71.5213254,
  "tags": {
    "name": "Nevados de Sollipulli",
    "natural": "volcano"
  }
},
{
  "type": "node",
  "id": 380544765,
  "lat": -38.3802042,
  "lon": -71.5868085,
  "tags": {
    "ele": "2865",
    "name": "Volcán Lonquimay",
    "natural": "volcano",
    "source": "Bing"
  }
},
{
  "type": "node",
  "id": 3455750049,
  "lat": -38.3685200,
  "lon": -71.5524296,
  "tags": {
    "name": "Cráter Navidad",
    "natural": "volcano"
  }
},
{
  "type": "node",
  "id": 660544692,
  "lat": -38.3141883,
  "lon": -71.6484309,
  "tags": {
    "ele": "2806",
    "name": "Volcán Tolhuaca",
    "natural": "volcano",
    "source": "IGM"
  }
},
{
  "type": "node",
  "id": 1419480997,
  "lat": -38.8144033,
  "lon": -71.1852187,
  "tags": {
    "ele": "1948",
    "name": "Batea Mahuida",
    "natural": "volcano"
  }
},
{
  "type": "node",
  "id": 3003365844,
  "lat": -37.9272820,
  "lon": -71.4473205,
  "tags": {
    "ele": "3164",
    "name": "Volcán Callaqui",
    "natural": "volcano",
    "source": "IGM"
  }
},
{
  "type": "node",
  "id": 4365582505,
  "lat": -37.9074168,
  "lon": -71.4022059,
  "tags": {
    "natural": "volcano",
    "source": "Bing"
  }
},
{
  "type": "node",
  "id": 2447968541,
  "lat": -37.4659648,
  "lon": -71.4152102,
  "tags": {
    "ele": "3585",
    "name": "Sierra Velluda",
    "natural": "volcano"
  }
},
{
  "type": "node",
  "id": 380564858,
  "lat": -37.4106884,
  "lon": -71.3512941,
  "tags": {
    "ele": "2979",
    "name": "Volcán Antuco",
    "natural": "volcano"
  }
},
{
  "type": "node",
  "id": 1933851506,
  "lat": -37.8588097,
  "lon": -71.1827011,
  "tags": {
    "condition": "active",
    "ele": "2953",
    "is_in:country": "Argentina",
    "is_in:country_code": "AR",
    "is_in:state": "Neuquén",
    "name": "Volcán Copahue",
    "name:en": "Copahue",
    "natural": "volcano",
    "note": "the whole complex straddles the Argentina - Chile border",
    "ref": "1507-09=",
    "source": "http://www.volcano.si.edu/world/volcano.cfm?vnum=1507-09=",
    "type": "stratovolcano",
    "website": "http://www.volcano.si.edu/world/volcano.cfm?vnum=1507-09=",
    "wikidata": "Q312930",
    "wikipedia": "es:Volcán Copahue"
  }
},
{
  "type": "node",
  "id": 2105151502,
  "lat": -37.7383501,
  "lon": -68.9238236,
  "tags": {
    "ele": "2258",
    "name": "Cerro Auca Mahuida",
    "natural": "volcano"
  }
},
{
  "type": "node",
  "id": 3994067157,
  "lat": -59.4389148,
  "lon": -27.3703884,
  "tags": {
    "name": "Mount Larsen",
    "natural": "volcano",
    "wikipedia": "en:Mount Larsen (South Sandwich Islands)"
  }
},
{
  "type": "node",
  "id": 3994067158,
  "lat": -59.4114915,
  "lon": -27.0789329,
  "tags": {
    "natural": "volcano"
  }
},
{
  "type": "node",
  "id": 1826741216,
  "lat": -59.0133116,
  "lon": -26.5382840,
  "tags": {
    "ele": "1098",
    "name": "Mount Darnley",
    "natural": "volcano",
    "volcano:status": "active",
    "volcano:type": "stratovolcano",
    "wikidata": "Q6920365",
    "wikipedia": "en:Mount Darnley"
  }
},
{
  "type": "node",
  "id": 1826741173,
  "lat": -58.4550614,
  "lon": -26.3708930,
  "tags": {
    "ele": "1372",
    "name": "Mount Belinda",
    "natural": "volcano",
    "type": "stratovolcano",
    "wikipedia": "en:Mount Belinda"
  }
},
{
  "type": "node",
  "id": 2282636426,
  "lat": -36.8751395,
  "lon": -71.4333856,
  "tags": {
    "name": "Cráter Renegado",
    "natural": "volcano"
  }
},
{
  "type": "node",
  "id": 1202590913,
  "lat": -36.8286542,
  "lon": -71.4096904,
  "tags": {
    "ele": "3212",
    "name": "Nevado de Chillán",
    "natural": "volcano"
  }
},
{
  "type": "node",
  "id": 1202591707,
  "lat": -36.8748379,
  "lon": -71.3710575,
  "tags": {
    "ele": "3122",
    "name": "Volcán Chillán Viejo",
    "natural": "volcano"
  }
},
{
  "type": "node",
  "id": 304831490,
  "lat": -36.8675122,
  "lon": -71.3787345,
  "tags": {
    "ele": "3186",
    "name": "Volcán Chillán Nuevo",
    "natural": "volcano"
  }
},
{
  "type": "node",
  "id": 4576551987,
  "lat": -36.4605580,
  "lon": -70.9034530,
  "tags": {
    "ele": "1890",
    "name": "Volcán Resago",
    "natural": "volcano",
    "volcano:type": "scoria"
  }
},
{
  "type": "node",
  "id": 3653058637,
  "lat": -36.1969279,
  "lon": -71.1636188,
  "tags": {
    "alt_name": "Nevado de Longuén o Lonquén",
    "ele": "3242",
    "name": "Nevado de Longaví",
    "natural": "volcano",
    "short_name": "Nevado Longaví",
    "volcano:last_eruption": "~-4890",
    "volcano:status": "dormant",
    "volcano:type": "stratovolcano",
    "wikipedia": "es:Nevado de Longaví"
  }
},
{
  "type": "node",
  "id": 4580480249,
  "lat": -35.9933836,
  "lon": -70.8515443,
  "tags": {
    "alt_name": "Volcán Las Yeguas",
    "ele": "3621",
    "name": "Volcán San Pedro",
    "natural": "volcano",
    "volcano:type": "stratovolcano"
  }
},
{
  "type": "node",
  "id": 4580480250,
  "lat": -35.9707589,
  "lon": -70.7880055,
  "tags": {
    "ele": "3120",
    "name": "Volcán Pellado",
    "natural": "volcano",
    "volcano:type": "stratovolcano"
  }
},
{
  "type": "node",
  "id": 3620869499,
  "lat": -35.7292210,
  "lon": -70.8096941,
  "tags": {
    "ele": "2000",
    "name": "Volcán Los Hornitos",
    "natural": "volcano",
    "volcano:type": "scoria"
  }
},
{
  "type": "node",
  "id": 4580401437,
  "lat": -35.6714122,
  "lon": -70.8443218,
  "tags": {
    "ele": "2397",
    "geological": "volcanic_vent",
    "name": "Cráter Los Quillayes",
    "natural": "volcano"
  }
},
{
  "type": "node",
  "id": 4580401436,
  "lat": -35.6384247,
  "lon": -70.8468243,
  "tags": {
    "ele": "2463",
    "geological": "volcanic_vent",
    "name": "Cráter La Resolana",
    "natural": "volcano"
  }
},
{
  "type": "node",
  "id": 3424298879,
  "lat": -35.6567250,
  "lon": -70.7631068,
  "tags": {
    "ele": "3788",
    "name": "Cerro azul",
    "natural": "volcano",
    "volcano:last_eruption": "1967-08-09",
    "volcano:status": "active",
    "volcano:type": "stratovolcano",
    "wikipedia": "en:Cerro Azul (Chile volcano)"
  }
},
{
  "type": "node",
  "id": 3424298308,
  "lat": -35.6370500,
  "lon": -70.7569506,
  "tags": {
    "alt_name": "Cerro del Medio",
    "ele": "3292",
    "geological": "volcanic_vent",
    "name": "Volcán Quizapú",
    "name:en": "Quizapu Crater",
    "natural": "volcano",
    "start_date": "1846-11-26",
    "volcanic_vent:type": "crater",
    "volcano:last_eruption": "1967-08-09"
  }
},
{
  "type": "node",
  "id": 3424291860,
  "lat": -35.5861321,
  "lon": -70.7511786,
  "tags": {
    "ele": "3953",
    "name": "Volcán Descabezado Grande",
    "natural": "volcano",
    "volcano:last_eruption": "1932-12-15",
    "volcano:status": "active",
    "volcano:type": "stratovolcano"
  }
},
{
  "type": "node",
  "id": 4576466884,
  "lat": -35.4685044,
  "lon": -70.8015676,
  "tags": {
    "ele": "2048",
    "name": "Volcán Mondaca",
    "natural": "volcano",
    "volcano:last_eruption": "1762",
    "volcano:type": "dome"
  }
},
{
  "type": "node",
  "id": 4580429827,
  "lat": -35.5584848,
  "lon": -70.5114904,
  "tags": {
    "alt_name": "Cerro del Medio",
    "ele": "3508",
    "name": "Volcán Calabozos",
    "natural": "volcano",
    "wikipedia": "en:Calabozos"
  }
},
{
  "type": "node",
  "id": 3654945295,
  "lat": -35.5294910,
  "lon": -70.6709079,
  "tags": {
    "ele": "2928",
    "geological": "volcanic_vent",
    "name": "Cerro Colorado",
    "natural": "volcano",
    "volcanic_vent:type": "scoria"
  }
},
{
  "type": "node",
  "id": 4580429828,
  "lat": -35.5187750,
  "lon": -70.5998504,
  "tags": {
    "ele": "3092",
    "name": "Cráter de las Escorias",
    "natural": "volcano",
    "volcanic_vent:type": "scoria"
  }
},
{
  "type": "node",
  "id": 3654938747,
  "lat": -35.5154987,
  "lon": -70.6185500,
  "tags": {
    "ele": "3250",
    "geological": "volcanic_vent",
    "name": "Volcán Descabezado Chico",
    "natural": "volcano",
    "volcanic_vent:type": "scoria"
  }
},
{
  "type": "node",
  "id": 525705273,
  "lat": -35.2736027,
  "lon": -70.5819485,
  "tags": {
    "ele": "4135",
    "name": "Volcán Azufre",
    "natural": "volcano"
  }
},
{
  "type": "node",
  "id": 687515203,
  "lat": -35.2243666,
  "lon": -70.5672564,
  "tags": {
    "ele": "3885",
    "name": "Volcán El Planchón Peteroa",
    "natural": "volcano"
  }
},
{
  "type": "node",
  "id": 2666304037,
  "lat": -37.1407964,
  "lon": -70.0495751,
  "tags": {
    "ele": "4114",
    "name": "Volcán Tromen",
    "natural": "volcano"
  }
},
{
  "type": "node",
  "id": 474973520,
  "lat": -36.6365987,
  "lon": -70.4312667,
  "tags": {
    "ele": "4702",
    "name": "Volcán Domuyo",
    "natural": "volcano",
    "source": "Wikipedia",
    "wikipedia": "es:Volcán Domuyo"
  }
},
{
  "type": "node",
  "id": 4458215680,
  "lat": -36.7384966,
  "lon": -69.8347234,
  "tags": {
    "name": "Volcán de Cochiquito",
    "natural": "volcano"
  }
},
{
  "type": "node",
  "id": 1243428531,
  "lat": -36.5107688,
  "lon": -69.2860096,
  "tags": {
    "name": "Payún Liso",
    "natural": "volcano"
  }
},
{
  "type": "node",
  "id": 498471495,
  "lat": -35.9237626,
  "lon": -70.3666861,
  "tags": {
    "ele": "4049",
    "name": "Cerro Campanario",
    "natural": "volcano"
  }
},
{
  "type": "node",
  "id": 4458215678,
  "lat": -36.4216630,
  "lon": -69.2413411,
  "tags": {
    "ele": "3715",
    "name": "Volcán Payun Matru",
    "natural": "volcano"
  }
},
{
  "type": "node",
  "id": 1270059282,
  "lat": -36.4151931,
  "lon": -69.2084850,
  "tags": {
    "name": "Payún Matrú",
    "natural": "volcano",
    "wikipedia": "es:Payún Matrú"
  }
},
{
  "type": "node",
  "id": 4458215679,
  "lat": -36.3013171,
  "lon": -69.3208098,
  "tags": {
    "ele": "1992",
    "name": "Volcán Santa María",
    "natural": "volcano"
  }
},
{
  "type": "node",
  "id": 1243428853,
  "lat": -35.7742919,
  "lon": -69.4771485,
  "tags": {
    "ele": "1876",
    "name": "Cerro Malacara",
    "natural": "volcano"
  }
},
{
  "type": "node",
  "id": 1243427972,
  "lat": -35.8306427,
  "lon": -69.1476848,
  "tags": {
    "name": "Carapacho",
    "natural": "volcano"
  }
},
{
  "type": "node",
  "id": 1243428450,
  "lat": -35.6127270,
  "lon": -69.2010558,
  "tags": {
    "ele": "1508",
    "name": "Cerro Trapal",
    "natural": "volcano"
  }
},
{
  "type": "node",
  "id": 493642785,
  "lat": -34.6108039,
  "lon": -70.2973545,
  "tags": {
    "ele": "4850",
    "name": "Volcán Palomo",
    "natural": "volcano"
  }
},
{
  "type": "node",
  "id": 3972327093,
  "lat": -34.5548426,
  "lon": -70.0016729,
  "tags": {
    "ele": "4619",
    "name": "Volcán Overo",
    "natural": "volcano"
  }
},
{
  "type": "node",
  "id": 469832854,
  "lat": -34.1642070,
  "lon": -69.8344052,
  "tags": {
    "condition": "dormant",
    "ele": "5323",
    "name": "Volcán Maipo",
    "natural": "volcano",
    "wikipedia": "es:Volcán Maipo"
  }
},
{
  "type": "node",
  "id": 307344353,
  "lat": -33.7889315,
  "lon": -69.8956429,
  "tags": {
    "ele": "5856",
    "name": "Volcán San José",
    "natural": "volcano",
    "type": "stratovolcano"
  }
},
{
  "type": "node",
  "id": 4506870493,
  "lat": -33.7854062,
  "lon": -69.9006977,
  "tags": {
    "ele": "5770",
    "name": "Volcán San José",
    "natural": "volcano"
  }
},
{
  "type": "node",
  "id": 307344365,
  "lat": -33.7688438,
  "lon": -69.9028373,
  "tags": {
    "ele": "6070",
    "name": "Volcán San José",
    "natural": "volcano"
  }
},
{
  "type": "node",
  "id": 480539389,
  "lat": -33.4242611,
  "lon": -69.7965200,
  "tags": {
    "condition": "active",
    "ele": "5913",
    "is_in:country": "Chile",
    "is_in:country_code": "CL",
    "name": "Volcán Tupungatito",
    "natural": "volcano",
    "type": "stratovolcano"
  }
},
{
  "type": "node",
  "id": 3662404536,
  "lat": -33.3583899,
  "lon": -69.7703451,
  "tags": {
    "condition": "extinct",
    "ele": "6570",
    "name": "Volcán Tupungato",
    "natural": "volcano"
  }
},
{
  "type": "node",
  "id": 4033324988,
  "lat": -27.2994110,
  "lon": -68.5279590,
  "tags": {
    "ele": "6328",
    "name": "Nacimiento IV",
    "natural": "volcano"
  }
},
{
  "type": "node",
  "id": 4033329989,
  "lat": -27.2712634,
  "lon": -68.5246974,
  "tags": {
    "ele": "6299",
    "name": "Nacimiento V",
    "natural": "volcano"
  }
},
{
  "type": "node",
  "id": 4033324987,
  "lat": -27.2885037,
  "lon": -68.5106212,
  "tags": {
    "ele": "6389",
    "name": "Nacimiento III",
    "natural": "volcano"
  }
},
{
  "type": "node",
  "id": 1513392023,
  "lat": -27.2810061,
  "lon": -68.5242077,
  "tags": {
    "ele": "6436",
    "name": "Cerro del Nacimiento I",
    "natural": "volcano",
    "wikipedia": "es:Volcán Nacimientos del Cazadero"
  }
},
{
  "type": "node",
  "id": 4033324986,
  "lat": -27.2801127,
  "lon": -68.5131103,
  "tags": {
    "ele": "6446",
    "name": "Nacimiento II",
    "natural": "volcano"
  }
},
{
  "type": "node",
  "id": 1272284656,
  "lat": -27.0447378,
  "lon": -68.8183480,
  "tags": {
    "ele": "6030",
    "name": "Tres Cruces Norte",
    "natural": "volcano"
  }
},
{
  "type": "node",
  "id": 96186036,
  "lat": -27.0988677,
  "lon": -68.7781902,
  "tags": {
    "ele": "6749",
    "name": "Nevado Tres Cruces",
    "natural": "volcano"
  }
},
{
  "type": "node",
  "id": 1272284666,
  "lat": -27.0684537,
  "lon": -68.7852403,
  "tags": {
    "ele": "6629",
    "name": "Tres Cruces Central",
    "natural": "volcano"
  }
},
{
  "type": "node",
  "id": 4130336299,
  "lat": -27.2005766,
  "lon": -68.5560654,
  "tags": {
    "ele": "6660",
    "name": "Walther Penck",
    "natural": "volcano",
    "wikipedia": "en:Tipas"
  }
},
{
  "type": "node",
  "id": 1272284662,
  "lat": -27.1908486,
  "lon": -68.4735073,
  "tags": {
    "ele": "6028",
    "name": "Del Viento",
    "natural": "volcano"
  }
},
{
  "type": "node",
  "id": 96183752,
  "lat": -27.1094268,
  "lon": -68.5408592,
  "tags": {
    "ele": "6891",
    "name": "Nevado Ojos del Salado",
    "natural": "volcano",
    "wikipedia": "es:Nevado Ojos del Salado"
  }
},
{
  "type": "node",
  "id": 1272284608,
  "lat": -27.0985074,
  "lon": -68.3810658,
  "tags": {
    "ele": "5373",
    "name": "Volcán Negro",
    "natural": "volcano"
  }
},
{
  "type": "node",
  "id": 1273007153,
  "lat": -27.1500516,
  "lon": -68.3229675,
  "tags": {
    "ele": "4861",
    "name": "Volcán Rojo",
    "natural": "volcano"
  }
},
{
  "type": "node",
  "id": 96186394,
  "lat": -27.0335900,
  "lon": -68.2959916,
  "tags": {
    "alt_name": "Nevado de Incahuasi",
    "ele": "6638",
    "name": "Volcán Incahuasi",
    "natural": "volcano"
  }
},
{
  "type": "node",
  "id": 96184086,
  "lat": -26.9191726,
  "lon": -68.2632095,
  "tags": {
    "alt_name": "Cerro San Francisco",
    "ele": "6016",
    "name": "Nevado San Francisco",
    "natural": "volcano"
  }
},
{
  "type": "node",
  "id": 1273037424,
  "lat": -26.5149752,
  "lon": -68.6025792,
  "tags": {
    "natural": "volcano"
  }
},
{
  "type": "node",
  "id": 3766852739,
  "lat": -26.5078496,
  "lon": -68.5537440,
  "tags": {
    "natural": "volcano"
  }
},
{
  "type": "node",
  "id": 1273037435,
  "lat": -26.5042016,
  "lon": -68.5607244,
  "tags": {
    "natural": "volcano"
  }
},
{
  "type": "node",
  "id": 3766853364,
  "lat": -26.4915849,
  "lon": -68.5611882,
  "tags": {
    "ele": "6152",
    "name": "Cumbre del Laudo",
    "natural": "volcano"
  }
},
{
  "type": "node",
  "id": 3445772312,
  "lat": -26.6224289,
  "lon": -68.1159739,
  "tags": {
    "ele": "5830",
    "name": "Volcán Peinado",
    "natural": "volcano"
  }
},
{
  "type": "node",
  "id": 2917495038,
  "lat": -26.4799462,
  "lon": -68.1476590,
  "tags": {
    "ele": "4330",
    "natural": "volcano"
  }
},
{
  "type": "node",
  "id": 1273860880,
  "lat": -26.4827900,
  "lon": -68.0573401,
  "tags": {
    "ele": "4370",
    "natural": "volcano"
  }
},
{
  "type": "node",
  "id": 4086462671,
  "lat": -26.4194599,
  "lon": -68.0265780,
  "tags": {
    "natural": "volcano"
  }
},
{
  "type": "node",
  "id": 2456806378,
  "lat": -26.7822522,
  "lon": -67.7575936,
  "tags": {
    "ele": "4670",
    "name": "Cerro Blanco",
    "natural": "volcano"
  }
},
{
  "type": "node",
  "id": 4088017747,
  "lat": -26.0036996,
  "lon": -67.7992216,
  "tags": {
    "natural": "volcano"
  }
},
{
  "type": "node",
  "id": 3556745435,
  "lat": -26.3060430,
  "lon": -67.3499998,
  "tags": {
    "alt_name": "El Condor",
    "ele": "3410",
    "name": "El Jote 4",
    "natural": "volcano"
  }
},
{
  "type": "node",
  "id": 3556747218,
  "lat": -26.3250461,
  "lon": -67.3289713,
  "tags": {
    "ele": "3685",
    "name": "El Jote",
    "natural": "volcano"
  }
},
{
  "type": "node",
  "id": 3556755093,
  "lat": -26.2985933,
  "lon": -67.4132006,
  "tags": {
    "ele": "3275",
    "name": "Volcán Cachamani",
    "natural": "volcano"
  }
},
{
  "type": "node",
  "id": 3556747233,
  "lat": -26.2891914,
  "lon": -67.3502573,
  "tags": {
    "name": "El Jote 6",
    "natural": "volcano"
  }
},
{
  "type": "node",
  "id": 3556747574,
  "lat": -26.2946550,
  "lon": -67.3326620,
  "tags": {
    "ele": "3365",
    "name": "El Jote 5",
    "natural": "volcano"
  }
},
{
  "type": "node",
  "id": 3556749651,
  "lat": -26.2974251,
  "lon": -67.3230489,
  "tags": {
    "ele": "3420",
    "name": "El Jote 7",
    "natural": "volcano"
  }
},
{
  "type": "node",
  "id": 3556753301,
  "lat": -26.3245114,
  "lon": -67.3028744,
  "tags": {
    "ele": "3515",
    "name": "El Jote 2",
    "natural": "volcano"
  }
},
{
  "type": "node",
  "id": 655345060,
  "lat": -26.1479361,
  "lon": -67.3849535,
  "tags": {
    "ele": "3598",
    "name": "Alumbrera",
    "natural": "volcano"
  }
},
{
  "type": "node",
  "id": 655345071,
  "lat": -26.1287033,
  "lon": -67.4111730,
  "tags": {
    "ele": "3540",
    "name": "Antofagasta de la Sierra",
    "name:cs": "Antofagasta de la Sierra (sopka)",
    "name:de": "Antofagasta de la Sierra (Vulkan)",
    "name:fr": "Volcan Antofagasta",
    "name:ka": "ანტოფაგასტა-დე-ლა-სიერა",
    "name:ms": "Gunung Antofagasta de la Sierra",
    "name:ru": "Антофагаста-де-ла-Сьерра (вулкан)",
    "name:sk": "Antofagasta de la Sierra (sopka)",
    "name:uk": "Антофагаста-де-ла-Сьєрра (вулкан)",
    "natural": "volcano",
    "wikidata": "Q312936",
    "wikipedia": "es:Volcán Antofagasta"
  }
},
{
  "type": "node",
  "id": 4088016264,
  "lat": -25.9595904,
  "lon": -67.7444241,
  "tags": {
    "natural": "volcano"
  }
},
{
  "type": "node",
  "id": 4088016150,
  "lat": -25.9430988,
  "lon": -67.7439333,
  "tags": {
    "natural": "volcano"
  }
},
{
  "type": "node",
  "id": 506448386,
  "lat": -25.3746628,
  "lon": -68.8830944,
  "tags": {
    "ele": "5480",
    "natural": "volcano"
  }
},
{
  "type": "node",
  "id": 2680411336,
  "lat": -25.1680069,
  "lon": -68.5065837,
  "tags": {
    "alt": "Azufre",
    "ele": "5680",
    "name": "Volcán Lastarria",
    "natural": "volcano"
  }
},
{
  "type": "node",
  "id": 3445772293,
  "lat": -25.2140959,
  "lon": -68.3042661,
  "tags": {
    "ele": "5510",
    "name": "Volcan Pedernal",
    "natural": "volcano"
  }
},
{
  "type": "node",
  "id": 1513552176,
  "lat": -25.5624323,
  "lon": -67.8810321,
  "tags": {
    "ele": "6440",
    "name": "Volcán Antofalla",
    "natural": "volcano"
  }
},
{
  "type": "node",
  "id": 365136307,
  "lat": -24.7203244,
  "lon": -68.5371214,
  "tags": {
    "ele": "6739",
    "name": "Volcán Llullaillaco",
    "natural": "volcano"
  }
},
{
  "type": "node",
  "id": 365136344,
  "lat": -24.3962620,
  "lon": -68.2477217,
  "tags": {
    "ele": "6051",
    "name": "Volcán Socompa",
    "natural": "volcano"
  }
},
{
  "type": "node",
  "id": 3062218115,
  "lat": -24.1919063,
  "lon": -68.0559828,
  "tags": {
    "ele": "6233",
    "name": "Cerro Púlar",
    "natural": "volcano",
    "type": "stratovolcano",
    "wikipedia": "es:Volcán Pular"
  }
},
{
  "type": "node",
  "id": 3062218117,
  "lat": -24.2880081,
  "lon": -67.7920611,
  "tags": {
    "ele": "6095",
    "name": "Aracar",
    "natural": "volcano",
    "wikipedia": "es:Volcán Aracar"
  }
},
{
  "type": "node",
  "id": 2727543552,
  "lat": -25.9967234,
  "lon": -66.9052376,
  "tags": {
    "name": "Galan",
    "natural": "volcano"
  }
},
{
  "type": "node",
  "id": 2245229845,
  "lat": -24.0561427,
  "lon": -66.4784269,
  "tags": {
    "ele": "5500",
    "name": "Cerro Tuzgle",
    "natural": "volcano",
    "wikipedia": "en:Cerro Tuzgle"
  }
},
{
  "type": "node",
  "id": 2775947599,
  "lat": -24.0260421,
  "lon": -65.6207802,
  "tags": {
    "ele": "4510",
    "name": "Cerro Potrerillos",
    "natural": "volcano"
  }
},
{
  "type": "node",
  "id": 3445765575,
  "lat": -23.8164679,
  "lon": -67.7574943,
  "tags": {
    "ele": "5910",
    "name": "Cerro Miñiques",
    "natural": "volcano"
  }
},
{
  "type": "node",
  "id": 4556378203,
  "lat": -23.7428868,
  "lon": -67.5411236,
  "tags": {
    "ele": "5852",
    "name": "Volcán Puntas Negras",
    "natural": "volcano"
  }
},
{
  "type": "node",
  "id": 1474029229,
  "lat": -23.6738103,
  "lon": -67.7160564,
  "tags": {
    "ele": "5622",
    "name": "Cerro Miscanti",
    "natural": "volcano",
    "wikipedia": "en:Cerro Miscanti"
  }
},
{
  "type": "node",
  "id": 1005286146,
  "lat": -23.3672106,
  "lon": -67.7373340,
  "tags": {
    "ele": "5592",
    "name": "Lascar",
    "name:de": "Láscar",
    "name:es": "Volcán Láscar",
    "name:hi": "लास्कर",
    "name:lt": "Laskaras",
    "name:ru": "Ласкар",
    "name:uk": "Ласкар",
    "natural": "volcano",
    "wikipedia": "en:Lascar (volcano)"
  }
},
{
  "type": "node",
  "id": 1005539019,
  "lat": -23.3640119,
  "lon": -67.6818883,
  "tags": {
    "ele": "5924",
    "name": "Aguas Calientes",
    "natural": "volcano",
    "wikipedia": "en:Aguas Calientes (volcano)"
  }
},
{
  "type": "node",
  "id": 1005539035,
  "lat": -23.2923976,
  "lon": -67.6181140,
  "tags": {
    "ele": "6046",
    "name": "Acamarachi (Pili)",
    "name:es": "Volcán Acamarachi",
    "name:ru": "Акамарачи",
    "name:uk": "Акамарачі",
    "natural": "volcano",
    "wikipedia": "en:Acamarachi"
  }
},
{
  "type": "node",
  "id": 3445765569,
  "lat": -23.2376621,
  "lon": -67.7512327,
  "tags": {
    "ele": "5005",
    "name": "Volcán Hecar",
    "natural": "volcano"
  }
},
{
  "type": "node",
  "id": 3445765570,
  "lat": -23.2548719,
  "lon": -67.7116297,
  "tags": {
    "ele": "5430",
    "name": "Volcán Laguna Verde",
    "natural": "volcano"
  }
},
{
  "type": "node",
  "id": 2452851750,
  "lat": -22.8464291,
  "lon": -67.8243349,
  "tags": {
    "ele": "5704",
    "name": "Cerro Juriques",
    "natural": "volcano",
    "ref": "4",
    "source": "Tratado de Paz y Amistad entre Chile y Bolivia",
    "wikipedia": "en:Juriques"
  }
},
{
  "type": "node",
  "id": 96305003,
  "lat": -22.8336865,
  "lon": -67.8823672,
  "tags": {
    "alt_name": "Volcán Licancábur",
    "ele": "5920",
    "image": "http://images.nationalgeographic.com/wpf/media-live/photos/000/109/cache/licancabur-volcano_10946_990x742.jpg",
    "name": "Volcán Licancabur",
    "natural": "volcano",
    "ref": "5",
    "source": "Tratado de Paz y Amistad entre Chile y Bolivia",
    "wikipedia": "es:Volcán Licancabur",
    "wikipedia:de": "Licancabur",
    "wikipedia:en": "Licancabur"
  }
},
{
  "type": "node",
  "id": 96304718,
  "lat": -22.7190231,
  "lon": -67.8903146,
  "tags": {
    "ele": "5971",
    "name": "Cerro Sairecábur",
    "natural": "volcano",
    "ref": "6",
    "source": "Tratado de Paz y Amistad entre Chile y Bolivia",
    "wikipedia": "es:Sairecabur"
  }
},
{
  "type": "node",
  "id": 353189950,
  "lat": -22.7035070,
  "lon": -67.8860651,
  "tags": {
    "ele": "5700",
    "name": "Saciel",
    "natural": "volcano"
  }
},
{
  "type": "node",
  "id": 96183119,
  "lat": -22.8137975,
  "lon": -67.1807903,
  "tags": {
    "alt_name": "Punto Trifinio Argentina - Bolivia - Chile",
    "ele": "5580",
    "name": "Cerro Zapaleri",
    "natural": "volcano",
    "ref": "1",
    "source": "Tratado de Paz y Amistad entre Chile y Bolivia",
    "volcano:status": "extinct",
    "volcano:type": "stratovolcano",
    "wikidata": "Q147206",
    "wikipedia": "es:Cerro Zapaleri"
  }
},
{
  "type": "node",
  "id": 4556308916,
  "lat": -22.6265944,
  "lon": -67.8803314,
  "tags": {
    "ele": "5760",
    "name": "Volcán Ojos del Toro",
    "natural": "volcano"
  }
},
{
  "type": "node",
  "id": 3060360711,
  "lat": -22.6134394,
  "lon": -67.8833640,
  "tags": {
    "ele": "5770",
    "name": "Volcán Escalante",
    "natural": "volcano"
  }
},
{
  "type": "node",
  "id": 535314679,
  "lat": -22.5572951,
  "lon": -67.8530855,
  "tags": {
    "alt_name": "Volcán Jorgencal",
    "ele": "5890",
    "name": "Volcán Putana o Jorjencal",
    "natural": "volcano",
    "ref": "8",
    "source": "Tratado de Paz y Amistad entre Chile y Bolivia"
  }
},
{
  "type": "node",
  "id": 1263568343,
  "lat": -22.4364426,
  "lon": -67.8902925,
  "tags": {
    "ele": "5808",
    "name": "Cerro Tocorpuri",
    "natural": "volcano"
  }
},
{
  "type": "node",
  "id": 1603607720,
  "lat": -22.2594547,
  "lon": -67.4151723,
  "tags": {
    "name": "Cerro Loromita",
    "natural": "volcano"
  }
},
{
  "type": "node",
  "id": 353193596,
  "lat": -22.2642770,
  "lon": -67.1870291,
  "tags": {
    "ele": "6008",
    "name": "Cráter del Volcan Uturuncu",
    "name:pt": "Cratera do Vulcão Uturuncu",
    "natural": "volcano"
  }
},
{
  "type": "node",
  "id": 3062141660,
  "lat": -21.8880812,
  "lon": -68.3914184,
  "tags": {
    "ele": "6120",
    "name": "Volcán San Pedro",
    "natural": "volcano"
  }
},
{
  "type": "node",
  "id": 4084234626,
  "lat": -22.1487686,
  "lon": -67.9672669,
  "tags": {
    "ele": "5606",
    "name": "Volcán Línzor",
    "natural": "volcano"
  }
},
{
  "type": "node",
  "id": 1263568764,
  "lat": -21.8843522,
  "lon": -68.3420906,
  "tags": {
    "ele": "6092",
    "name": "Volcán San Pablo",
    "natural": "volcano"
  }
},
{
  "type": "node",
  "id": 96305270,
  "lat": -21.9787174,
  "lon": -68.0716124,
  "tags": {
    "ele": "5628",
    "name": "Cerro Inacaliri o del Cajón",
    "natural": "volcano"
  }
},
{
  "type": "node",
  "id": 96304728,
  "lat": -21.6044396,
  "lon": -68.1804798,
  "tags": {
    "ele": "5688",
    "name": "Cerro Araral",
    "natural": "volcano",
    "ref": "20",
    "source": "Tratado de Paz y Amistad entre Chile y Bolivia"
  }
},
{
  "type": "node",
  "id": 96305028,
  "lat": -21.6783986,
  "lon": -68.1177226,
  "tags": {
    "alt_name": "Cerro Ascotán de Ramaditas",
    "alt_name_1": "Cerro del Jardín",
    "ele": "5470",
    "name": "Cerro Ascotán",
    "natural": "volcano",
    "ref": "19",
    "source": "Tratado de Paz y Amistad entre Chile y Bolivia"
  }
},
{
  "type": "node",
  "id": 1603607718,
  "lat": -22.1232657,
  "lon": -67.5418648,
  "tags": {
    "fixme": "yes",
    "natural": "volcano"
  }
},
{
  "type": "node",
  "id": 1263568645,
  "lat": -21.2210966,
  "lon": -68.4682941,
  "tags": {
    "ele": "6174",
    "name": "Volcán Aucanquilcha",
    "natural": "volcano",
    "type": "stratovolcano",
    "wikipedia": "es:Volcán Aucanquilcha"
  }
},
{
  "type": "node",
  "id": 96305350,
  "lat": -21.3024240,
  "lon": -68.1790228,
  "tags": {
    "ele": "5868",
    "name": "Volcán Ollagüe",
    "name:pt": "Vulcão Ollague",
    "natural": "volcano",
    "ref": "21",
    "source": "Tratado de Paz y Amistad entre Chile y Bolivia",
    "volcano:status": "active",
    "wikidata": "Q1420297",
    "wikipedia": "es:Volcán Ollagüe"
  }
},
{
  "type": "node",
  "id": 1263568662,
  "lat": -20.9468475,
  "lon": -68.4863808,
  "tags": {
    "ele": "5407",
    "name": "Volcán Olca",
    "natural": "volcano",
    "ref": "25",
    "source": "Tratado de Paz y Amistad entre Chile y Bolivia"
  }
},
{
  "type": "node",
  "id": 1495367303,
  "lat": -20.7314462,
  "lon": -68.5525608,
  "tags": {
    "ele": "5163",
    "name": "Volcán Irruputuncu",
    "natural": "volcano",
    "ref": "28",
    "source": "Tratado de Paz y Amistad entre Chile y Bolivia",
    "wikipedia": "es:Volcán Irruputuncu"
  }
},
{
  "type": "node",
  "id": 1603607694,
  "lat": -20.8221290,
  "lon": -68.2733789,
  "tags": {
    "fixme": "yes",
    "natural": "volcano"
  }
},
{
  "type": "node",
  "id": 1603607696,
  "lat": -20.8491777,
  "lon": -68.1986642,
  "tags": {
    "name": "Cerro Uquilla",
    "natural": "volcano"
  }
},
{
  "type": "node",
  "id": 1603607691,
  "lat": -20.7038113,
  "lon": -68.1040599,
  "tags": {
    "name": "Cerro Julina",
    "natural": "volcano"
  }
},
{
  "type": "node",
  "id": 1603607687,
  "lat": -20.6360593,
  "lon": -68.1089575,
  "tags": {
    "name": "Cerro Caltama",
    "natural": "volcano"
  }
},
{
  "type": "node",
  "id": 1603607702,
  "lat": -21.2666607,
  "lon": -67.8487413,
  "tags": {
    "name": "Cerro Sedilla",
    "natural": "volcano"
  }
},
{
  "type": "node",
  "id": 1603607699,
  "lat": -21.1883329,
  "lon": -67.7988079,
  "tags": {
    "name": "Cerro Chass",
    "natural": "volcano"
  }
},
{
  "type": "node",
  "id": 1603607700,
  "lat": -21.2176303,
  "lon": -67.6073713,
  "tags": {
    "name": "Cerro Khala Katin",
    "natural": "volcano"
  }
},
{
  "type": "node",
  "id": 1603607698,
  "lat": -21.1041817,
  "lon": -67.8645282,
  "tags": {
    "name": "Cerro Chajra Orkho",
    "natural": "volcano"
  }
},
{
  "type": "node",
  "id": 1607414711,
  "lat": -20.8179571,
  "lon": -67.7801196,
  "tags": {
    "name": "Cerro Caral",
    "natural": "volcano"
  }
},
{
  "type": "node",
  "id": 493041600,
  "lat": -19.4958363,
  "lon": -69.1027701,
  "tags": {
    "natural": "volcano"
  }
},
{
  "type": "node",
  "id": 339577599,
  "lat": -19.5671101,
  "lon": -68.9956105,
  "tags": {
    "natural": "volcano"
  }
},
{
  "type": "node",
  "id": 493043079,
  "lat": -19.3498096,
  "lon": -69.1333258,
  "tags": {
    "name": "Volcan Isluga",
    "natural": "volcano"
  }
},
{
  "type": "node",
  "id": 2356665117,
  "lat": -19.1552201,
  "lon": -68.8276381,
  "tags": {
    "ele": "5530",
    "name": "Volcán Isluga",
    "natural": "volcano"
  }
},
{
  "type": "node",
  "id": 452866158,
  "lat": -20.5140716,
  "lon": -68.6653423,
  "tags": {
    "alt_name": "Poko K'ollu",
    "ele": "5140",
    "name": "Cerro Napa",
    "natural": "volcano",
    "ref": "34",
    "source": "Tratado de Paz y Amistad entre Chile y Bolivia"
  }
},
{
  "type": "node",
  "id": 96306220,
  "lat": -19.7524390,
  "lon": -68.6969626,
  "tags": {
    "alt_name": "Volcán Sillajhuay",
    "ele": "5995",
    "name": "Cerro Alto Toroni",
    "natural": "volcano",
    "source": "Protocolo sobre Canje de Territorios de 1907"
  }
},
{
  "type": "node",
  "id": 1607520165,
  "lat": -19.8318069,
  "lon": -68.2015190,
  "tags": {
    "name": "Cerro Pitalaca",
    "natural": "volcano"
  }
},
{
  "type": "node",
  "id": 276605843,
  "lat": -19.8325765,
  "lon": -67.6445971,
  "tags": {
    "ele": "5432",
    "is_in": "Salinas Garcí Mendoza;Oruro;Bolivia",
    "is_in:country_code": "BO",
    "is_in:state": "Oruro",
    "name": "Tunupa",
    "name:qu": "Tunupa urqu",
    "natural": "volcano",
    "status": "dormant",
    "type": "stratovolcano",
    "wikipedia": "es:Volcán Tunupa",
    "wikipedia:de": "Tunupa",
    "wikipedia:en": "Tunupa",
    "wikipedia:pt": "Tunupa",
    "wikipedia:qu": "Tunupa urqu"
  }
},
{
  "type": "node",
  "id": 621766612,
  "lat": -19.3278105,
  "lon": -68.3117754,
  "tags": {
    "ele": "4910",
    "name": "Cerro Villa Pucarani",
    "natural": "volcano",
    "wikipedia": "es:Cerro Villa Pucarani"
  }
},
{
  "type": "node",
  "id": 353185492,
  "lat": -18.4205078,
  "lon": -69.0905960,
  "tags": {
    "ele": "6071",
    "name": "Guallatiri",
    "natural": "volcano"
  }
},
{
  "type": "node",
  "id": 96306766,
  "lat": -18.4159213,
  "lon": -69.0457499,
  "tags": {
    "ele": "5990",
    "name": "Volcán Capurata",
    "natural": "volcano",
    "ref": "81",
    "source": "Tratado de Paz y Amistad entre Chile y Bolivia"
  }
},
{
  "type": "node",
  "id": 96307640,
  "lat": -18.3828165,
  "lon": -69.0479971,
  "tags": {
    "ele": "6052",
    "is_in": "Andes,South America",
    "name": "Cerro Acotango",
    "natural": "volcano",
    "ref": "81",
    "source": "Tratado de Paz y Amistad entre Chile y Bolivia",
    "volcano:type": "stratovolcano",
    "wikipedia": "es:Volcán Acotango"
  }
},
{
  "type": "node",
  "id": 2025279222,
  "lat": -18.2387851,
  "lon": -69.0643968,
  "tags": {
    "name": "Volcán Quisiquisini",
    "natural": "volcano",
    "ref": "83",
    "source": "Tratado de Paz y Amistad entre Chile y Bolivia"
  }
},
{
  "type": "node",
  "id": 353184772,
  "lat": -18.1628255,
  "lon": -69.1457629,
  "tags": {
    "ele": "6348",
    "name": "Volcán Parinacota",
    "natural": "volcano",
    "ref": "85",
    "source": "Tratado de Paz y Amistad entre Chile y Bolivia",
    "type": "stratovolcano",
    "volcano:status": "dormant",
    "volcano:type": "stratovolcano",
    "wikidata": "Q255010",
    "wikipedia": "es:Volcán Parinacota"
  }
},
{
  "type": "node",
  "id": 353183650,
  "lat": -18.1281428,
  "lon": -69.1291714,
  "tags": {
    "ele": "6282",
    "name": "Volcán Pomerape",
    "natural": "volcano",
    "ref": "86",
    "source": "Tratado de Paz y Amistad entre Chile y Bolivia",
    "type": "stratovolcano",
    "wikipedia": "es:Volcán Pomerape"
  }
},
{
  "type": "node",
  "id": 313766810,
  "lat": -18.1086024,
  "lon": -68.8835310,
  "tags": {
    "description": "Highest peak in Bolivia",
    "ele": "6542",
    "name": "Nevado Sajama",
    "natural": "volcano",
    "volcano:status": "extinct",
    "volcano:type": "stratovolcano",
    "wikidata": "Q272593",
    "wikipedia": "es:Nevado Sajama"
  }
},
{
  "type": "node",
  "id": 503606785,
  "lat": -17.7203675,
  "lon": -69.7727281,
  "tags": {
    "ele": "5988",
    "name": "Volcán Tacora",
    "natural": "volcano"
  }
},
{
  "type": "node",
  "id": 503606790,
  "lat": -17.6755584,
  "lon": -69.8055154,
  "tags": {
    "ele": "5784",
    "name": "Nevado Chupiquiña",
    "natural": "volcano"
  }
},
{
  "type": "node",
  "id": 1728615878,
  "lat": -17.1822222,
  "lon": -70.1980556,
  "tags": {
    "name": "Volcán Yucamani (Ver Yunamane)",
    "natural": "volcano",
    "wikipedia": "es:Yucamani"
  }
},
{
  "type": "node",
  "id": 1728615859,
  "lat": -15.5508333,
  "lon": -72.5952778,
  "tags": {
    "alt_name": "Nevado Coropuna",
    "ele": "7244",
    "name": "Volcán Coropuna",
    "natural": "volcano",
    "wikidata": "Q946035",
    "wikipedia": "es:Coropuna"
  }
},
{
  "type": "node",
  "id": 1728615863,
  "lat": -15.5341747,
  "lon": -72.3112464,
  "tags": {
    "name": "Volcán Jechapita",
    "natural": "volcano"
  }
},
{
  "type": "node",
  "id": 1728615864,
  "lat": -15.5202778,
  "lon": -72.3455556,
  "tags": {
    "name": "Volcán Jenchaña",
    "natural": "volcano"
  }
},
{
  "type": "node",
  "id": 1728615858,
  "lat": -15.5236111,
  "lon": -72.3133333,
  "tags": {
    "name": "Volcán Chilcayoc",
    "natural": "volcano"
  }
},
{
  "type": "node",
  "id": 1728615857,
  "lat": -15.5358333,
  "lon": -72.2877778,
  "tags": {
    "name": "Volcán Chilcayoc Grande",
    "natural": "volcano"
  }
},
{
  "type": "node",
  "id": 1728615874,
  "lat": -16.7675000,
  "lon": -70.5997222,
  "tags": {
    "name": "Volcán Ticsani",
    "natural": "volcano"
  }
},
{
  "type": "node",
  "id": 253904997,
  "lat": -16.4474652,
  "lon": -71.2402733,
  "tags": {
    "description": "Uno de los picos del nevado Pichu Pichu",
    "ele": "5664",
    "name": "Pichu Pichu",
    "natural": "volcano",
    "wikidata": "Q1641313",
    "wikipedia": "en:Pikchu Pikchu"
  }
},
{
  "type": "node",
  "id": 1728615876,
  "lat": -16.3422222,
  "lon": -70.8969444,
  "tags": {
    "ele": "5672",
    "name": "Volcán Ubinas",
    "natural": "volcano",
    "wikidata": "Q1075162",
    "wikipedia": "es:Ubinas"
  }
},
{
  "type": "node",
  "id": 1728615862,
  "lat": -16.6158333,
  "lon": -70.8500000,
  "tags": {
    "name": "Volcán Huaynaputina (Ver Nevado Huaynaputina)",
    "natural": "volcano"
  }
},
{
  "type": "node",
  "id": 253904849,
  "lat": -16.1944470,
  "lon": -71.5407824,
  "tags": {
    "ele": "6025",
    "name": "Chachani",
    "name:en": "Chachani Volcano",
    "name:es": "Volcán Chachani",
    "natural": "volcano",
    "wikidata": "Q1058424",
    "wikipedia": "es:Chachani"
  }
},
{
  "type": "node",
  "id": 1728615867,
  "lat": -16.2991787,
  "lon": -71.4057770,
  "tags": {
    "alt_name": "Nevado Misti",
    "ele": "5822",
    "name": "El Misti",
    "name:en": "Misti Volcano",
    "name:es": "Volcán Misti",
    "name:qu": "Wawa Putina",
    "natural": "volcano",
    "wikidata": "Q572865",
    "wikipedia": "es:Misti"
  }
},
{
  "type": "node",
  "id": 1728615853,
  "lat": -15.8211111,
  "lon": -71.8794444,
  "tags": {
    "name": "Volcán Ampato (Huayapuna)",
    "natural": "volcano"
  }
},
{
  "type": "node",
  "id": 1728615872,
  "lat": -15.7869444,
  "lon": -71.8558333,
  "tags": {
    "name": "Volcán Sabancaya",
    "natural": "volcano"
  }
},
{
  "type": "node",
  "id": 1728615861,
  "lat": -15.7262090,
  "lon": -71.8712074,
  "tags": {
    "ele": "6025",
    "name": "Volcán Hualca Hualca",
    "natural": "volcano",
    "wikidata": "Q2115281",
    "wikipedia": "es:Hualca Hualca"
  }
},
{
  "type": "node",
  "id": 1440200764,
  "lat": -15.5951750,
  "lon": -71.9995730,
  "tags": {
    "natural": "volcano"
  }
},
{
  "type": "node",
  "id": 467481063,
  "lat": -15.5169654,
  "lon": -71.6783848,
  "tags": {
    "description": "Waters from here form the most distant source of the Amazon River",
    "ele": "5597",
    "is_in:country": "Peru",
    "is_in:state": "Arequipa",
    "name": "Nevado Mismi",
    "natural": "volcano",
    "note": "position needs checking",
    "type": "stratovolcano",
    "wikipedia": "en:Nevado Mismi"
  }
},
{
  "type": "node",
  "id": 4275668643,
  "lat": -15.3235799,
  "lon": -73.4502987,
  "tags": {
    "name": "Sara Sara",
    "natural": "volcano"
  }
},
{
  "type": "node",
  "id": 1728615854,
  "lat": -15.0727778,
  "lon": -73.1902778,
  "tags": {
    "name": "Volcán Auquihuato (Ver Cerro Auquihuato)",
    "natural": "volcano"
  }
},
{
  "type": "node",
  "id": 3148370350,
  "lat": -15.0141930,
  "lon": -73.1440788,
  "tags": {
    "natural": "volcano",
    "source": "bing"
  }
},
{
  "type": "node",
  "id": 3148370314,
  "lat": -15.0058940,
  "lon": -73.1213647,
  "tags": {
    "natural": "volcano",
    "source": "bing"
  }
},
{
  "type": "node",
  "id": 1728615873,
  "lat": -15.4016667,
  "lon": -72.9061111,
  "tags": {
    "name": "Volcán Solimana (Ver Nevado Solimana)",
    "natural": "volcano"
  }
},
{
  "type": "node",
  "id": 1728615860,
  "lat": -15.2252778,
  "lon": -72.6319444,
  "tags": {
    "name": "Volcán Firula (Ver Nevado Firula)",
    "natural": "volcano"
  }
},
{
  "type": "node",
  "id": 2351738930,
  "lat": -15.4849658,
  "lon": -72.3787698,
  "tags": {
    "natural": "volcano"
  }
},
{
  "type": "node",
  "id": 2351738934,
  "lat": -15.4857544,
  "lon": -72.3534024,
  "tags": {
    "natural": "volcano"
  }
},
{
  "type": "node",
  "id": 1728615877,
  "lat": -15.3160111,
  "lon": -72.4334267,
  "tags": {
    "name": "Volcán Yana Mauras",
    "natural": "volcano"
  }
},
{
  "type": "node",
  "id": 2351738893,
  "lat": -15.4814224,
  "lon": -72.3496760,
  "tags": {
    "natural": "volcano"
  }
},
{
  "type": "node",
  "id": 1728615870,
  "lat": -15.4259375,
  "lon": -72.3394855,
  "tags": {
    "name": "Volcán Puca Mauras (Ver Cerro Puca Mauras)",
    "natural": "volcano"
  }
},
{
  "type": "node",
  "id": 1728615855,
  "lat": -15.3658333,
  "lon": -72.3466667,
  "tags": {
    "name": "Volcán Callhua Mauras",
    "natural": "volcano"
  }
},
{
  "type": "node",
  "id": 1728615868,
  "lat": -15.2897222,
  "lon": -72.4611111,
  "tags": {
    "name": "Volcán Pabellón Mauras",
    "natural": "volcano"
  }
},
{
  "type": "node",
  "id": 1728615866,
  "lat": -15.2605556,
  "lon": -72.4847222,
  "tags": {
    "name": "Volcán Misahuana Mauras",
    "natural": "volcano"
  }
},
{
  "type": "node",
  "id": 3148369852,
  "lat": -14.7365709,
  "lon": -72.8258116,
  "tags": {
    "natural": "volcano",
    "source": "bing"
  }
},
{
  "type": "node",
  "id": 3148369654,
  "lat": -14.7222417,
  "lon": -72.7971053,
  "tags": {
    "natural": "volcano",
    "source": "bing"
  }
},
{
  "type": "node",
  "id": 3148369485,
  "lat": -14.7046959,
  "lon": -72.8096814,
  "tags": {
    "natural": "volcano",
    "source": "bing"
  }
},
{
  "type": "node",
  "id": 3148369426,
  "lat": -14.7004113,
  "lon": -72.7838667,
  "tags": {
    "natural": "volcano",
    "source": "bing"
  }
},
{
  "type": "node",
  "id": 3148369353,
  "lat": -14.6884683,
  "lon": -72.8166606,
  "tags": {
    "natural": "volcano",
    "source": "bing"
  }
},
{
  "type": "node",
  "id": 3148369221,
  "lat": -14.6691692,
  "lon": -72.7833693,
  "tags": {
    "natural": "volcano",
    "source": "bing"
  }
},
{
  "type": "node",
  "id": 3148369220,
  "lat": -14.6244215,
  "lon": -72.7895788,
  "tags": {
    "natural": "volcano",
    "source": "bing"
  }
},
{
  "type": "node",
  "id": 1728615865,
  "lat": -15.4800293,
  "lon": -72.0173599,
  "tags": {
    "name": "Volcán Marhuas",
    "natural": "volcano"
  }
},
{
  "type": "node",
  "id": 467493076,
  "lat": -15.3014009,
  "lon": -71.8301581,
  "tags": {
    "is_in:country": "Peru",
    "is_in:state": "Arequipa",
    "natural": "volcano",
    "source": "landsat"
  }
},
{
  "type": "node",
  "id": 467493166,
  "lat": -15.3858276,
  "lon": -71.8147086,
  "tags": {
    "is_in:country": "Peru",
    "is_in:state": "Arequipa",
    "natural": "volcano",
    "source": "landsat"
  }
},
{
  "type": "node",
  "id": 467492369,
  "lat": -15.2944466,
  "lon": -71.7954825,
  "tags": {
    "is_in:country": "Peru",
    "is_in:state": "Arequipa",
    "natural": "volcano",
    "source": "landsat"
  }
},
{
  "type": "node",
  "id": 467514885,
  "lat": -14.8930685,
  "lon": -72.0994175,
  "tags": {
    "is_in:country": "Peru",
    "natural": "volcano",
    "source": "landsat"
  }
},
{
  "type": "node",
  "id": 1728615871,
  "lat": -14.1655556,
  "lon": -71.3558333,
  "tags": {
    "name": "Volcán Quinsachata",
    "natural": "volcano"
  }
},
{
  "type": "node",
  "id": 1692245432,
  "lat": -14.1638520,
  "lon": -71.3548569,
  "tags": {
    "ele": "3923",
    "name": "Volcán Quimsachata",
    "natural": "volcano"
  }
},
{
  "type": "node",
  "id": 1728615875,
  "lat": -17.0250000,
  "lon": -70.3719444,
  "tags": {
    "name": "Volcán Tutupaca",
    "natural": "volcano",
    "wikipedia": "es:Tutupaca"
  }
},
{
  "type": "node",
  "id": 1605599566,
  "lat": -19.7792248,
  "lon": -66.4802070,
  "tags": {
    "ele": "5438",
    "is_in:country": "Bolivia",
    "name": "Nuevo Mundo",
    "natural": "volcano",
    "wikipedia": "de:Nuevo Mundo (Vulkan)"
  }
},
{
  "type": "node",
  "id": 1554680607,
  "lat": 8.8074314,
  "lon": -82.5409024,
  "tags": {
    "ele": "3474",
    "name": "Volcán Barú",
    "natural": "volcano"
  }
},
{
  "type": "node",
  "id": 302364254,
  "lat": 12.9820577,
  "lon": -87.5674475,
  "tags": {
    "alt_name": "Cosigüina",
    "ele": "859",
    "name": "Volcán Cosigüina",
    "name:en": "Cosiguina Vulcano",
    "name_1": "El Cosigüina",
    "name_2": "Volcán Coseguina",
    "name_3": "Volcán de Coseguina",
    "natural": "volcano",
    "old_name": "Cosegüina",
    "old_name_1": "Volcán Cosegüina",
    "old_name_2": "Volcán de Cosegüina",
    "source": "Bing & 1:50k topo map no. 2654i (1984), Cosigüina, Chinandega, Nicaragua",
    "source:link": "http://www.lib.utexas.edu/maps/topo/nicaragua/cosiguina-nicaragua-50k-2654i-1984.pdf",
    "status": "dormant",
    "wikipedia": "es:Volcán_Cosigüina"
  }
},
{
  "type": "node",
  "id": 267127808,
  "lat": 13.8139316,
  "lon": -89.6325030,
  "tags": {
    "ele": "1952",
    "last_eruption": "1966-11",
    "name": "Volcán de Izalco",
    "natural": "volcano",
    "note": "También Conocido como Faro del Pasifico",
    "volcano:status": "active",
    "volcano:type": "stratovolcano",
    "wikidata": "Q1049619",
    "wikipedia": "en:Izalco (volcano)"
  }
},
{
  "type": "node",
  "id": 2601778558,
  "lat": 13.8514201,
  "lon": -89.6290215,
  "tags": {
    "alt_name": "Ilamatepec",
    "ele": "2381",
    "last_eruption": "2005-10",
    "name": "Volcán de Santa Ana",
    "natural": "volcano",
    "note": "ilamatepec",
    "volcano:status": "active",
    "volcano:type": "stratovolcano",
    "wikidata": "Q1049338",
    "wikipedia": "en:Santa Ana Volcano"
  }
},
{
  "type": "node",
  "id": 3969616060,
  "lat": 13.8071425,
  "lon": -89.5940510,
  "tags": {
    "ele": "1480",
    "name": "Volcán San Marcelino",
    "natural": "volcano"
  }
},
{
  "type": "node",
  "id": 2601741115,
  "lat": 13.7372422,
  "lon": -89.2861120,
  "tags": {
    "alt_name": "Quetzaltepec",
    "ele": "1893",
    "last_eruption": "1917",
    "name": "Volcan de San Salvador",
    "natural": "volcano",
    "ref": "343050",
    "source": "cyclemap",
    "volcano:status": "active",
    "volcano:type": "stratovolcano",
    "website": "www.volcano.si.edu/volcano.cfm?vn=343050",
    "wikidata": "Q2577068",
    "wikipedia": "en:San Salvador (volcano)"
  }
},
{
  "type": "node",
  "id": 2701052913,
  "lat": 13.6720891,
  "lon": -89.0471290,
  "tags": {
    "last_eruption": "1880",
    "name": "Ilopango",
    "natural": "volcano",
    "ref": "343060",
    "source": "Smithonian Global Volcanism Program",
    "volcano:status": "active",
    "volcano:type": "caldera",
    "website": "http://www.volcano.si.edu/volcano.cfm?vn=343060",
    "wikidata": "Q137953",
    "wikipedia": "en:Ilopango (volcano)"
  }
},
{
  "type": "node",
  "id": 2601814929,
  "lat": 14.1180219,
  "lon": -89.7269626,
  "tags": {
    "ele": "1775",
    "name": "Volcán de Chingo",
    "natural": "volcano",
    "type": "strato",
    "wikipedia": "en:Chingo"
  }
},
{
  "type": "node",
  "id": 2601741126,
  "lat": 13.4187505,
  "lon": -88.4700168,
  "tags": {
    "description": "Usulután volcano anchors the SE end of a cluster of basaltic to basaltic-andesite stratovolcanoes between San Vicente and San Miguel volcanoes.",
    "ele": "1449",
    "name": "Volcán de Usulután",
    "natural": "volcano",
    "ref": "343081",
    "source": "cyclemap",
    "source:description": "Smithsonian Institute Global Volcanism Program",
    "status": "dormant",
    "type": "strato",
    "website": "www.volcano.si.edu/volcano.cfm?vn=343081",
    "wikidata": "Q2661950",
    "wikipedia": "en:Usulután (volcano)"
  }
},
{
  "type": "node",
  "id": 308200481,
  "lat": 13.4320224,
  "lon": -88.2717370,
  "tags": {
    "alt_name": "Volcán de San Miguel Bosotlan",
    "alt_name:en": "San Miguel",
    "ele": "2129",
    "last_eruption": "2013-12-29",
    "name": "Chaparrastique",
    "natural": "volcano",
    "ref": "343100",
    "volcano:status": "active",
    "volcano:type": "stratovolcano",
    "website": "http://www.volcano.si.edu/volcano.cfm?vn=343100",
    "wikidata": "Q1062664",
    "wikipedia": "en:San Miguel (volcano)"
  }
},
{
  "type": "node",
  "id": 2701438791,
  "lat": 13.4290050,
  "lon": -88.1056369,
  "tags": {
    "ele": "181",
    "name": "Laguna Aramuaca",
    "natural": "volcano",
    "ref": "343101",
    "source": "Smithsonian Institution global Vo",
    "volcano:status": "dormant",
    "volcano:type": "maar",
    "website": "www.volcano.si.edu/volcano.cfm?vn=343101"
  }
},
{
  "type": "node",
  "id": 2601741121,
  "lat": 13.5963888,
  "lon": -88.8379493,
  "tags": {
    "alt_name": "Chichontepec;Las Chiches",
    "ele": "2181",
    "name": "Volcán de San Vicente",
    "natural": "volcano",
    "ref": "343070",
    "status": "inactive",
    "type": "stratovolcano",
    "website": "www.volcano.si.edu/volcano.cfm?vn=343070",
    "wikidata": "Q1072131",
    "wikipedia": "en:San Vicente Volcano"
  }
},
{
  "type": "node",
  "id": 2601741167,
  "lat": 13.4397375,
  "lon": -88.5324749,
  "tags": {
    "ele": "1172",
    "name": "Taburete",
    "natural": "volcano",
    "ref": "343072",
    "source": "Smithsonian Institution global Vo",
    "status": "dormant",
    "type": "strato",
    "website": "www.volcano.si.edu/volcano.cfm?vn=343072",
    "wikidata": "Q3132195"
  }
},
{
  "type": "node",
  "id": 2601741170,
  "lat": 13.4664717,
  "lon": -88.4325998,
  "tags": {
    "description": "Cerro el Tigre is the highest, NE-most, and oldest of the cluster of coalescing basaltic to basaltic-andesite Quaternary volcanoes between the Río Lempa and San Miguel volcano.",
    "ele": "1640",
    "name": "El Tigre",
    "natural": "volcano",
    "ref": "343082",
    "source": "Smithsonian Institution global Vo",
    "status": "dormant",
    "type": "strato",
    "website": "www.volcano.si.edu/volcano.cfm?vn=343072"
  }
},
{
  "type": "node",
  "id": 2701431001,
  "lat": 13.4932174,
  "lon": -88.4978440,
  "tags": {
    "ele": "1593",
    "name": "Tecapa",
    "natural": "volcano",
    "ref": "343080",
    "source": "Smithsonian Institution global Vo",
    "status": "dormant",
    "type": "strato",
    "website": "www.volcano.si.edu/volcano.cfm?vn=343072",
    "wikidata": "Q3042754"
  }
},
{
  "type": "node",
  "id": 2601693541,
  "lat": 13.4767464,
  "lon": -88.3183964,
  "tags": {
    "alt_name": "El Pacayal",
    "ele": "1300",
    "name": "Volcán de Chinameca",
    "natural": "volcano",
    "ref": "343090",
    "source": "Smithsonian Institution global Vo",
    "status": "dormant",
    "type": "strato",
    "website": "www.volcano.si.edu/volcano.cfm?vn=343090",
    "wikipedia": "en:Chinameca (volcano)"
  }
},
{
  "type": "node",
  "id": 2601812618,
  "lat": 13.2802902,
  "lon": -87.8292517,
  "tags": {
    "alt_name": "Cochague",
    "description": "No known eruptions in last 10,000 years",
    "ele": "1449",
    "name": "Volcán de Conchagua",
    "natural": "volcano",
    "ref": "343110",
    "source": "cyclemap",
    "status": "dormant",
    "type": "strato",
    "website": "www.volcano.si.edu/volcano.cfm?vn=343110",
    "wikidata": "Q2661919",
    "wikipedia": "en:Conchagua (volcano)"
  }
},
{
  "type": "node",
  "id": 2701038247,
  "lat": 13.2335860,
  "lon": -87.7651181,
  "tags": {
    "ele": "505",
    "last_eruption": "1882",
    "name": "Conchagüita",
    "natural": "volcano",
    "ref": "343120",
    "source": "Smithsonian Global Volcanism Program",
    "volcano:status": "active",
    "volcano:type": "stratovolcano",
    "website": "www.volcano.si.edu/volcano.cfm?vn=343120",
    "wikipedia": "en:Conchagüita"
  }
},
{
  "type": "node",
  "id": 321618444,
  "lat": 13.2733243,
  "lon": -87.6377428,
  "tags": {
    "name": "Cerro Tigre",
    "natural": "volcano"
  }
},
{
  "type": "node",
  "id": 361188735,
  "lat": 10.4419796,
  "lon": -84.6881376,
  "tags": {
    "condition": "dormant",
    "ele": "1140",
    "name": "Cerro Chato",
    "natural": "volcano",
    "url": "http://es.wikipedia.org/wiki/Volcn_Chato"
  }
},
{
  "type": "node",
  "id": 276216895,
  "lat": 10.4626905,
  "lon": -84.7029783,
  "tags": {
    "condition": "dormant",
    "ele": "1657",
    "name": "Volcán Arenal",
    "name:de": "Arenal",
    "name:en": "Arenal Volcano",
    "name:es": "Volcán Arenal",
    "natural": "volcano",
    "type": "strato",
    "volcano:status": "active",
    "volcano:type": "stratovolcano"
  }
},
{
  "type": "node",
  "id": 276225138,
  "lat": 10.3000174,
  "lon": -84.3660879,
  "tags": {
    "condition": "extinct",
    "ele": "2183",
    "name": "Volcán Platanar",
    "natural": "volcano"
  }
},
{
  "type": "node",
  "id": 582825569,
  "lat": 10.1339978,
  "lon": -84.1055668,
  "tags": {
    "ele": "2906",
    "is_in": "Heredia, Costa Rica",
    "name": "Volcán Barva",
    "natural": "volcano",
    "volcano:status": "dormant",
    "volcano:type": "shield",
    "wikidata": "Q809647",
    "wikipedia": "en:Barva Volcano"
  }
},
{
  "type": "node",
  "id": 276217780,
  "lat": 10.1978153,
  "lon": -84.2302979,
  "tags": {
    "condition": "dormant",
    "ele": "2708",
    "is_in": "Alajuela, Costa Rica",
    "name": "Volcán Poás",
    "name:en": "Poás Volcano",
    "name:fr": "Poás",
    "natural": "volcano",
    "volcano:status": "active",
    "volcano:type": "stratovolcano",
    "wikidata": "Q1969482"
  }
},
{
  "type": "node",
  "id": 3882863443,
  "lat": 10.8114872,
  "lon": -85.3163657,
  "tags": {
    "ele": "1916",
    "name": "Volcán Santa María",
    "natural": "volcano"
  }
},
{
  "type": "node",
  "id": 4136447807,
  "lat": 10.7456019,
  "lon": -85.1483626,
  "tags": {
    "ele": "2028",
    "name": "Volcán Miravalles",
    "natural": "volcano"
  }
},
{
  "type": "node",
  "id": 367992484,
  "lat": 10.8306667,
  "lon": -85.3365272,
  "tags": {
    "ele": "1806",
    "name": "Rincón de la Vieja",
    "natural": "volcano"
  }
},
{
  "type": "node",
  "id": 4136805713,
  "lat": 10.7000166,
  "lon": -85.0198310,
  "tags": {
    "ele": "1916",
    "name": "Volcán Tenorio",
    "natural": "volcano"
  }
},
{
  "type": "node",
  "id": 276232612,
  "lat": 10.9794191,
  "lon": -85.4680166,
  "tags": {
    "condition": "extinct",
    "ele": "1659",
    "name": "Volcán Orosí",
    "natural": "volcano"
  }
},
{
  "type": "node",
  "id": 175897820,
  "lat": 11.5390087,
  "lon": -85.6225811,
  "tags": {
    "alt_name": "Volcán Concepción",
    "ele": "1610",
    "name": "Concepción",
    "name:lt": "Konsepsjono ugnikalnis",
    "name:uk": "Консепсьйон",
    "natural": "volcano",
    "volcano:status": "active",
    "volcano:type": "stratovolcano",
    "wikidata": "Q1067452",
    "wikipedia": "es:Volcán Concepción"
  }
},
{
  "type": "node",
  "id": 2894568645,
  "lat": 11.7372259,
  "lon": -85.8152496,
  "tags": {
    "ele": "625",
    "name": "Volcán Zapatera",
    "natural": "volcano",
    "source": "Bing & NGA topo map \"Isla Zapatera\" no. 3051iii (1972)",
    "source:link": "http://www.lib.utexas.edu/maps/topo/nicaragua/isla_zapatera-nicaragua-50k-3051iii-1972.pdf",
    "volcano:status": "extinct",
    "volcano:type": "shield",
    "wikidata": "Q147245",
    "wikipedia": "es:Zapatera_(volcán)"
  }
},
{
  "type": "node",
  "id": 2123292734,
  "lat": 11.9823533,
  "lon": -86.1688784,
  "tags": {
    "alt_name": "Volcán Popogatepe",
    "alt_name_1": "Volcán de Masaya",
    "condition": "active",
    "ele": "635",
    "name": "Volcán Masaya",
    "natural": "volcano",
    "source": "BingSat & NGA 1:50k topo map No. 2951i 1972 & site review in 2015",
    "wikipedia": "es:Volcán_Masaya"
  }
},
{
  "type": "node",
  "id": 4075177927,
  "lat": 11.9859454,
  "lon": -86.1730815,
  "tags": {
    "alt_name_1": "Volcán de Santiago",
    "condition": "active",
    "ele": "590",
    "name": "Volcán Santiago",
    "natural": "volcano",
    "source": "BingSat & NGA 1:50k topo map No. 2951i 1972 & site review in 2015",
    "wikipedia": "es:Volcán_Masaya"
  }
},
{
  "type": "node",
  "id": 2123292729,
  "lat": 11.9823517,
  "lon": -86.1619069,
  "tags": {
    "natural": "volcano",
    "source": "Bing"
  }
},
{
  "type": "node",
  "id": 2123292740,
  "lat": 12.0004833,
  "lon": -86.1796993,
  "tags": {
    "condition": "active",
    "natural": "volcano",
    "source": "Bing"
  }
},
{
  "type": "node",
  "id": 484783342,
  "lat": 11.8236871,
  "lon": -85.9694053,
  "tags": {
    "name": "Volcan Mombacho",
    "natural": "volcano"
  }
},
{
  "type": "node",
  "id": 2808952757,
  "lat": 12.3512502,
  "lon": -86.4736915,
  "tags": {
    "ele": "389",
    "name": "Volcán Momotombito",
    "natural": "volcano",
    "source": "NGA 50k topo maps",
    "volcano:type": "stratovolcano",
    "wikidata": "Q6021154"
  }
},
{
  "type": "node",
  "id": 310185817,
  "lat": 12.4889364,
  "lon": -86.6688247,
  "tags": {
    "ele": "1050",
    "name": "Volcán del Hoyo",
    "natural": "volcano",
    "source": "BingSat & NGA 1:50k map Nicaragua No. 2853ii 1984 & site review in 2015",
    "volcano:status": "dormant"
  }
},
{
  "type": "node",
  "id": 2461173994,
  "lat": 12.5787527,
  "lon": -86.8169087,
  "tags": {
    "ele": "844",
    "name": "Volcán Santa Clara",
    "natural": "volcano",
    "source": "BingSat & NGA 1:50k map Nicaragua No. 2753iv 1973 & site review in 2015"
  }
},
{
  "type": "node",
  "id": 1199504508,
  "lat": 12.5078224,
  "lon": -86.7032877,
  "tags": {
    "alt_name": "Volcán Cerro Negro",
    "ele": "627",
    "name": "Cerro Negro",
    "natural": "volcano",
    "wikipedia": "es:Cerro_Negro_(volcán)"
  }
},
{
  "type": "node",
  "id": 2752678836,
  "lat": 12.4970333,
  "lon": -86.6876351,
  "tags": {
    "ele": "948",
    "name": "Volcán Las Pilas",
    "natural": "volcano",
    "source": "NGA 1:50k maps Nicaragua"
  }
},
{
  "type": "node",
  "id": 303539079,
  "lat": 12.4247007,
  "lon": -86.5384954,
  "tags": {
    "ele": "1279",
    "name": "Volcano Momotombo",
    "natural": "volcano",
    "wikipedia": "en:Momotombo"
  }
},
{
  "type": "node",
  "id": 2401832389,
  "lat": 12.7033716,
  "lon": -87.0435864,
  "tags": {
    "ele": "1105",
    "name": "Chonco",
    "natural": "volcano",
    "source": "NGA 1:50k maps Nicaragua"
  }
},
{
  "type": "node",
  "id": 302519463,
  "lat": 12.7034975,
  "lon": -87.0028641,
  "tags": {
    "condition": "active",
    "ele": "1745",
    "name": "Volcán San Cristóbal",
    "natural": "volcano",
    "type": "stratovolcano",
    "wikipedia": "es:Volcán San Cristóbal"
  }
},
{
  "type": "node",
  "id": 301977969,
  "lat": 12.6044084,
  "lon": -86.8441679,
  "tags": {
    "is_in": "Nicaragua",
    "is_in:country_code": "NI",
    "name": "Volcán Telica",
    "name:en": "Telica volcano",
    "natural": "volcano",
    "wikipedia": "en:Telica (volcano)"
  }
},
{
  "type": "node",
  "id": 2473666538,
  "lat": 12.6302879,
  "lon": -86.8454500,
  "tags": {
    "alt_name": "Volcán de Aguerro",
    "ele": "725",
    "name": "Cerro de Aguerro",
    "natural": "volcano",
    "source": "BingSat & NGA 1:50k map Nicaragua No. 2753i 1986 & site review in 2015",
    "status": "extinct"
  }
},
{
  "type": "node",
  "id": 3913530351,
  "lat": 12.1867162,
  "lon": -86.3405465,
  "tags": {
    "natural": "volcano"
  }
},
{
  "type": "node",
  "id": 2117610415,
  "lat": 12.2427691,
  "lon": -86.3416639,
  "tags": {
    "name": "Volcan Apoyeque",
    "natural": "volcano",
    "source": "Bing",
    "volcano:status": "dormant",
    "volcano:type": "shield",
    "wikidata": "Q620603"
  }
},
{
  "type": "node",
  "id": 3913514753,
  "lat": 12.2325920,
  "lon": -86.2955134,
  "tags": {
    "name": "Cerro Chiltepe",
    "natural": "volcano",
    "wikidata": "Q21054839"
  }
},
{
  "type": "node",
  "id": 175897822,
  "lat": 11.4445172,
  "lon": -85.5119723,
  "tags": {
    "alt_name": "Maderas",
    "ele": "1394",
    "name": "Volcán Maderas",
    "natural": "volcano",
    "volcano:status": "dormant",
    "volcano:type": "stratovolcano",
    "wikidata": "Q1156943",
    "wikipedia": "en:Maderas"
  }
},
{
  "type": "node",
  "id": 1671398693,
  "lat": 9.9814457,
  "lon": -83.8476566,
  "tags": {
    "ele": "3432",
    "name": "Volcán Irazú",
    "name:en": "Irazú Volcano",
    "name:fr": "Irazú",
    "natural": "volcano",
    "volcano:status": "active",
    "volcano:type": "stratovolcano",
    "wikidata": "Q1672472",
    "wikipedia": "en:Irazú Volcano"
  }
},
{
  "type": "node",
  "id": 276219356,
  "lat": 10.0195547,
  "lon": -83.7630416,
  "tags": {
    "condition": "active",
    "ele": "3329",
    "name": "Volcan Turrialba",
    "natural": "volcano",
    "volcano:status": "active",
    "volcano:type": "stratovolcano",
    "website": "http://www.ovsicori.una.ac.cr/vulcanologia/videoturri.html",
    "wikidata": "Q546876",
    "wikipedia": "en:Turrialba Volcano"
  }
},
{
  "type": "node",
  "id": 3706989750,
  "lat": -6.7355108,
  "lon": -76.2267701,
  "tags": {
    "name": "Sunicocha",
    "natural": "volcano",
    "website": "http://www.mincetur.gob.pe/TURISMO/OTROS/inventario%20turistico/Ficha.asp?cod_Ficha=89"
  }
},
{
  "type": "node",
  "id": 3300279595,
  "lat": -0.8496230,
  "lon": -78.8996501,
  "tags": {
    "ele": "3914",
    "is_in:country": "Ecuador",
    "is_in:state": "Cotopaxi",
    "name": "Quilotoa",
    "natural": "volcano",
    "source": "https://es.wikipedia.org/wiki/Anexo:Volcanes_de_Ecuador",
    "status": "dormant",
    "wikipedia": "es:Quilotoa"
  }
},
{
  "type": "node",
  "id": 271141312,
  "lat": -1.7836257,
  "lon": -78.6153800,
  "tags": {
    "condition": "dormant",
    "description": "Last erupted in the Holocene era",
    "ele": "3336",
    "is_in:country": "Ecuador",
    "is_in:country_code": "EC",
    "is_in:state": "Chimborazo",
    "name": "Tulabug",
    "natural": "volcano"
  }
},
{
  "type": "node",
  "id": 249414631,
  "lat": -2.0049377,
  "lon": -78.3416774,
  "tags": {
    "description": "Very active volcano. First climbed in 1929 by Waddell Austin, Robert Moore, Terris Moore, Lewis Thorne.",
    "ele": "5280",
    "gns_classification": "VLC",
    "is_in:country": "Ecuador",
    "is_in:country_code": "EC",
    "is_in:state": "Morona Santiago",
    "name": "Sangay",
    "natural": "volcano",
    "source": "https://es.wikipedia.org/wiki/Anexo:Volcanes_de_Ecuador",
    "volcano:status": "active",
    "volcano:type": "stratovolcano",
    "wikipedia": "es:Sangay"
  }
},
{
  "type": "node",
  "id": 3255108269,
  "lat": -1.6719582,
  "lon": -78.4101666,
  "tags": {
    "ele": "5319",
    "is_in:country": "Ecuador",
    "is_in:country_code": "EC",
    "name": "El Altar",
    "natural": "volcano",
    "source": "https://es.wikipedia.org/wiki/Anexo:Volcanes_de_Ecuador",
    "status": "dormant",
    "wikipedia": "es:Volcán El Altar",
    "wikipedia:de": "El_Altar",
    "wikipedia:qu": "Qhapaq_Urqu"
  }
},
{
  "type": "node",
  "id": 58959434,
  "lat": -1.4693456,
  "lon": -78.8169011,
  "tags": {
    "comment": "API 0.6 migration altered tags on this element for schema compatibility. Manual check recommended.",
    "condition": "dormant",
    "description": "Highest peak in Ecuador and highest in the world relative to the centre of the earth. Erupted several times during the Holocene, the last time thought to be sometime during the first millenium AD. First climbed by Edward Whymper and the brothers Louis a",
    "ele": "6268",
    "geology": "andesitic-dacitic stratovolcano",
    "gns_classification": "VLC",
    "gns_uni": "-1370074",
    "is_in": "Ecuador",
    "is_in:country": "Ecuador",
    "is_in:country_code": "EC",
    "is_in:state": "Provincia del Chimborazo",
    "name": "Chimborazo",
    "natural": "volcano",
    "source": "GNS",
    "sport": "climbing",
    "type": "strato",
    "wikipedia": "es:Chimborazo (volcán)"
  }
},
{
  "type": "node",
  "id": 1815344324,
  "lat": -1.4669110,
  "lon": -78.4492119,
  "tags": {
    "condition": "active",
    "ele": "5016",
    "is_in:country": "Ecuador",
    "is_in:country_code": "EC",
    "name": "Tungurahua",
    "natural": "volcano",
    "volcano:status": "active",
    "volcano:type": "stratovolcano",
    "wikipedia": "es:Volcán Tungurahua",
    "wikipedia:de": "Tungurahua"
  }
},
{
  "type": "node",
  "id": 249408717,
  "lat": -1.4078097,
  "lon": -78.7508871,
  "tags": {
    "ele": "5018",
    "is_in:country": "Ecuador",
    "is_in:country_code": "EC",
    "name": "Carihuairazo",
    "natural": "volcano",
    "source": "https://es.wikipedia.org/wiki/Anexo:Volcanes_de_Ecuador",
    "status": "dormant",
    "wikipedia": "es:Carihuairazo"
  }
},
{
  "type": "node",
  "id": 2576976211,
  "lat": -1.1503811,
  "lon": -78.7250026,
  "tags": {
    "ele": "4116",
    "name": "Gallourcu",
    "natural": "volcano",
    "status": "dormant"
  }
},
{
  "type": "node",
  "id": 58981085,
  "lat": -0.6631352,
  "lon": -78.7159140,
  "tags": {
    "description": "Dormant stratovolcano. Illiniza Norte peak is hikable, Illiniza Sur is for climbers.",
    "ele": "5248",
    "is_in": "Ecuador",
    "name": "Illiniza Sur",
    "natural": "volcano",
    "source": "https://es.wikipedia.org/wiki/Anexo:Volcanes_de_Ecuador",
    "status": "dormant",
    "type": "strato",
    "wikipedia": "es:Illiniza"
  }
},
{
  "type": "node",
  "id": 344730641,
  "lat": -0.6492302,
  "lon": -78.7203596,
  "tags": {
    "ele": "5126",
    "name": "Illiniza Norte",
    "natural": "volcano",
    "status": "dormant",
    "type": "strato",
    "wikipedia": "es:Illiniza"
  }
},
{
  "type": "node",
  "id": 249418469,
  "lat": -0.6805954,
  "lon": -78.4377643,
  "tags": {
    "description": "Second highest peak in Ecuador. There have been more than 50 eruptions since 1738 with the last in 1940. First climbed by 1872-11-28 by Wilhelm Reiss and Ángel Escobar in 1872.",
    "ele": "5897",
    "gns_classification": "MT",
    "gns_uni": "252207",
    "is_in:country": "Ecuador",
    "is_in:country_code": "EC",
    "name": "Cotopaxi",
    "natural": "volcano",
    "source": "GNS",
    "volcano:status": "active",
    "volcano:type": "stratovolcano",
    "wikipedia": "es:Volcán Cotopaxi",
    "wikipedia:de": "Cotopaxi"
  }
},
{
  "type": "node",
  "id": 249409499,
  "lat": -0.5319602,
  "lon": -78.6604998,
  "tags": {
    "ele": "4790",
    "gns_classification": "MT",
    "is_in:country": "Ecuador",
    "is_in:country_code": "EC",
    "is_in:state": "Provincia de Pichincha",
    "name": "Corazón",
    "natural": "volcano",
    "source": "http://forum.openstreetmap.org/viewtopic.php?pid=474184#p474184",
    "status": "dormant",
    "type": "strato",
    "wikidata": "Q869065",
    "wikipedia": "es:Volcán Corazón",
    "wikipedia:de": "Corazón",
    "wikipedia:qu": "Sunqu (nina urqu)"
  }
},
{
  "type": "node",
  "id": 249414089,
  "lat": -0.5859500,
  "lon": -78.5079830,
  "tags": {
    "gns_classification": "MT",
    "gns_uni": "-1379731",
    "is_in:country": "Ecuador",
    "is_in:country_code": "EC",
    "name": "Rumiñahui",
    "natural": "volcano",
    "source": "GNS",
    "status": "dormant",
    "type": "strato",
    "wikipedia": "es:Rumiñahui (volcán)",
    "wikipedia:de": "Rumiñahui_(Vulkan)",
    "wikipedia:qu": "Rumiñawi_urqu"
  }
},
{
  "type": "node",
  "id": 249412318,
  "lat": -0.4656374,
  "lon": -78.4807056,
  "tags": {
    "ele": "4200",
    "gns_classification": "MT",
    "is_in:country": "Ecuador",
    "is_in:country_code": "EC",
    "is_in:state": "Pichincha",
    "name": "Pasochoa",
    "natural": "volcano",
    "source": "GNS",
    "sport": "trekking",
    "status": "extinct",
    "wikipedia": "es:Pasochoa",
    "wikipedia:qu": "Pasochoa"
  }
},
{
  "type": "node",
  "id": 249415135,
  "lat": -0.5384061,
  "lon": -78.3730516,
  "tags": {
    "ele": "4887",
    "gns_classification": "MT",
    "gns_uni": "-1381546",
    "is_in:country": "Ecuador",
    "is_in:country_code": "EC",
    "is_in:state": "Provincia de Pichincha",
    "name": "Sincholahua",
    "natural": "volcano",
    "source": "https://es.wikipedia.org/wiki/Anexo:Volcanes_de_Ecuador#Ecuador_continental",
    "status": "extinct"
  }
},
{
  "type": "node",
  "id": 249418500,
  "lat": -0.4916888,
  "lon": -78.1299068,
  "tags": {
    "ele": "5753",
    "gns_classification": "MT",
    "gns_uni": "252213",
    "is_in:country": "Ecuador",
    "is_in:country_code": "EC",
    "is_in:state": "Provincia de Pichincha",
    "name": "Antisana",
    "natural": "volcano",
    "source": "GNS",
    "status": "dormant",
    "wikipedia": "es:Volcán Antisana",
    "wikipedia:de": "Antisana",
    "wikipedia:qu": "Antisana"
  }
},
{
  "type": "node",
  "id": 249414889,
  "lat": -0.5413169,
  "lon": -77.6272219,
  "tags": {
    "condition": "active",
    "description": "Last erupted in 1933",
    "ele": "3990",
    "gns_classification": "VLC",
    "is_in:country": "Ecuador",
    "is_in:country_code": "EC",
    "is_in:state": "Provincia de Napo",
    "name": "Volcán Sumaco",
    "natural": "volcano",
    "source": "https://es.wikipedia.org/wiki/Anexo:Volcanes_de_Ecuador#Ecuador_continental",
    "status": "dormant",
    "type": "strato",
    "wikipedia": "en:Sumaco"
  }
},
{
  "type": "node",
  "id": 249407836,
  "lat": -0.3535146,
  "lon": -78.6215109,
  "tags": {
    "ele": "4455",
    "gns_classification": "MT",
    "is_in:country": "Ecuador",
    "is_in:country_code": "EC",
    "is_in:state": "Provincia de Pichincha",
    "name": "Atacazo",
    "natural": "volcano",
    "source": "GNS",
    "status": "dormant",
    "wikipedia": "es:Atacazo",
    "wikipedia:qu": "Atakasu"
  }
},
{
  "type": "node",
  "id": 249412184,
  "lat": -0.1657227,
  "lon": -78.6043435,
  "tags": {
    "ele": "4794",
    "gns_classification": "VLC",
    "is_in:country": "Ecuador",
    "is_in:country_code": "EC",
    "is_in:state": "Provincia de Pichincha",
    "name": "Volcán Pichincha",
    "natural": "volcano",
    "source": "GNS",
    "sport": "trekking",
    "volcano:type": "stratovolcano",
    "wikipedia": "es:Pichincha (volcán)",
    "wikipedia:de": "Pichincha",
    "wikipedia:qu": "Pichincha"
  }
},
{
  "type": "node",
  "id": 271140603,
  "lat": -0.3080751,
  "lon": -78.3637697,
  "tags": {
    "ele": "3246",
    "name": "Chichoca",
    "natural": "volcano",
    "source": "wikipedia"
  }
},
{
  "type": "node",
  "id": 249410387,
  "lat": -0.2628054,
  "lon": -78.4193935,
  "tags": {
    "ele": "3185",
    "gns_classification": "MT",
    "gns_uni": "-1374719",
    "is_in:country": "Ecuador",
    "is_in:country_code": "EC",
    "is_in:state": "Pichincha",
    "name": "Ilaló",
    "natural": "volcano",
    "source": "GNS",
    "status": "extinct",
    "wikipedia": "es:Ilaló"
  }
},
{
  "type": "node",
  "id": 249409663,
  "lat": -0.2104657,
  "lon": -78.2857852,
  "tags": {
    "ele": "3587",
    "gns_classification": "MT",
    "gns_uni": "-1370799",
    "is_in:country": "Ecuador",
    "is_in:country_code": "EC",
    "is_in:state": "Provincia de Pichincha",
    "name": "Coturco",
    "natural": "volcano",
    "source": "GNS",
    "status": "extinct"
  }
},
{
  "type": "node",
  "id": 352917238,
  "lat": -0.2135302,
  "lon": -78.1854240,
  "tags": {
    "ele": "4460",
    "name": "Chacana",
    "natural": "volcano",
    "source": "https://es.wikipedia.org/wiki/Anexo:Volcanes_de_Ecuador"
  }
},
{
  "type": "node",
  "id": 354868619,
  "lat": 0.0467819,
  "lon": -78.4962300,
  "tags": {
    "ele": "2984",
    "name": "Cerro Pondoña",
    "natural": "volcano"
  }
},
{
  "type": "node",
  "id": 271144425,
  "lat": 0.0351004,
  "lon": -78.4655803,
  "tags": {
    "ele": "3356",
    "is_in:country": "Ecuador",
    "is_in:country_code": "EC",
    "is_in:state": "Pichincha",
    "name": "Pululahua",
    "natural": "volcano",
    "source": "http://www.lib.utexas.edu/maps/topo/ecuador/txu-pclmaps-oclc-869565072-mojanda-3994-iii.jpg"
  }
},
{
  "type": "node",
  "id": 249411973,
  "lat": 0.1207172,
  "lon": -78.2595972,
  "tags": {
    "ele": "4263",
    "gns_classification": "MT",
    "gns_uni": "-1377430",
    "is_in:country": "Ecuador",
    "is_in:country_code": "EC",
    "is_in:state": "Pichincha",
    "name": "Cerro negro",
    "natural": "volcano",
    "source": "https://es.wikipedia.org/wiki/Anexo:Volcanes_de_Ecuador"
  }
},
{
  "type": "node",
  "id": 249410123,
  "lat": 0.1339296,
  "lon": -78.2939270,
  "tags": {
    "condition": "dormant",
    "ele": "4279",
    "gns_classification": "PK",
    "gns_uni": "-1372092",
    "is_in:country": "Ecuador",
    "is_in:country_code": "EC",
    "name": "Fuya Fuya",
    "natural": "volcano",
    "source": "GNS",
    "type": "strato"
  }
},
{
  "type": "node",
  "id": 249409844,
  "lat": 0.1608616,
  "lon": -78.1477127,
  "tags": {
    "ele": "4012",
    "gns_classification": "MT",
    "gns_uni": "-1371100",
    "is_in:country": "Ecuador",
    "is_in:country_code": "EC",
    "is_in:state": "Provincia de Imbabura",
    "name": "Cusín",
    "natural": "volcano",
    "source": "https://es.wikipedia.org/wiki/Anexo:Volcanes_de_Ecuador"
  }
},
{
  "type": "node",
  "id": 271138137,
  "lat": 0.3043976,
  "lon": -78.3697488,
  "tags": {
    "condition": "dormant",
    "ele": "3246",
    "name": "Cuicocha",
    "natural": "volcano",
    "type": "caldera",
    "wikipedia": "es:Cuicocha",
    "wikipedia:de": "Cuicocha",
    "wikipedia:qu": "Kuykucha"
  }
},
{
  "type": "node",
  "id": 249410367,
  "lat": 0.2542902,
  "lon": -78.1803913,
  "tags": {
    "description": "Inactive statovolcano that last erupted in the Late Pleistocene.",
    "ele": "4557",
    "gns_classification": "MT",
    "is_in:country": "Ecuador",
    "is_in:country_code": "EC",
    "is_in:state": "Provincia de Imbabura",
    "name": "Imbabura",
    "natural": "volcano",
    "source": "GNS",
    "status": "dormant",
    "type": "strato",
    "wikipedia": "es:Imbabura (volcán)",
    "wikipedia:de": "Imbabura_(Vulkan)",
    "wikipedia:qu": "Impapura"
  }
},
{
  "type": "node",
  "id": 249412247,
  "lat": -0.3592314,
  "lon": -77.6326529,
  "tags": {
    "ele": "3482",
    "gns_classification": "MT",
    "gns_uni": "-1377935",
    "is_in:country": "Ecuador",
    "is_in:country_code": "EC",
    "is_in:state": "Napo",
    "name": "Pan de Azúcar",
    "natural": "volcano",
    "source": "https://es.wikipedia.org/wiki/Anexo:Volcanes_de_Ecuador"
  }
},
{
  "type": "node",
  "id": 271142722,
  "lat": -0.3564849,
  "lon": -77.6295630,
  "tags": {
    "condition": "dormant",
    "ele": "3482",
    "name": "Pan de Azucar",
    "natural": "volcano",
    "source": "wikipedia"
  }
},
{
  "type": "node",
  "id": 249414219,
  "lat": -0.0786750,
  "lon": -77.6598897,
  "tags": {
    "description": "Active volcano erupting over 25 time since 1541. The last eruption was in 2007.",
    "ele": "3562",
    "geology": "andesitic stratovolcano",
    "gns_classification": "VLC",
    "gns_uni": "-1379533",
    "is_in:country": "Ecuador",
    "is_in:country_code": "EC",
    "is_in:state": "Napo",
    "name": "Reventador",
    "name:lt": "Reventadoras",
    "name:ru": "Ревентадор",
    "name:uk": "Ревентадор",
    "natural": "volcano",
    "note": "GNS location was wrong, now corrected",
    "source": "GNS",
    "volcano:status": "active",
    "volcano:type": "stratovolcano",
    "wikipedia": "es:Reventador"
  }
},
{
  "type": "node",
  "id": 249408951,
  "lat": 0.0247875,
  "lon": -77.9905990,
  "tags": {
    "description": "Third highest mountain in Ecuador but also in the northern hemisphere of the American continent. Very active in the Holocene with one historical eruption during 1785-86. First climbed by British climber Edward Whymper and his two Italian guides and com",
    "ele": "5790",
    "gns_classification": "VLC",
    "is_in:country": "Ecuador",
    "is_in:country_code": "EC",
    "name": "Cayambe",
    "natural": "volcano",
    "source": "https://es.wikipedia.org/wiki/Anexo:Volcanes_de_Ecuador",
    "status": "inactive",
    "type": "strato",
    "wikipedia": "es:Cayambe (volcán)"
  }
},
{
  "type": "node",
  "id": 437980410,
  "lat": 0.8244775,
  "lon": -77.9674616,
  "tags": {
    "description": "part of Chiles complex volcano. Has a caldera open to the west, with andesitic and dacitic lava flows of possible Holocene age and solfataras on the shore of a small crater lake. last eruption report may be from a different volcano.",
    "ele": "4462",
    "is_in:country": "Ecuador",
    "last_eruption": "1936",
    "name": "Volcán Cerro Negro de Mayasquer",
    "natural": "volcano",
    "ref": "351110",
    "source:description": "Smithsonian Institute, Global Volcanism Program",
    "status": "dormant",
    "type": "stratovolcano",
    "website": "www.sgc.gov.co/Pasto/Volcanes/Volcanes-Chiles---Cerro-Negro/Generalidades.aspx",
    "wikipedia": "en:Cerro Negro de Mayasque"
  }
},
{
  "type": "node",
  "id": 271128377,
  "lat": 0.8169534,
  "lon": -77.9372503,
  "tags": {
    "condition": "dormant",
    "ele": "4756",
    "is_in": "Colombia; Nariño; Ecuador",
    "name": "Volcán Chiles",
    "natural": "volcano",
    "source": "https://es.wikipedia.org/wiki/Anexo:Volcanes_de_Ecuador",
    "sport": "hiking",
    "type": "stratovolcano",
    "wikipedia": "es:Chiles (volcán)",
    "wikipedia:qu": "Chiles"
  }
},
{
  "type": "node",
  "id": 271145503,
  "lat": 0.5512434,
  "lon": -77.5823592,
  "tags": {
    "alt_name": "Volcán el Soche",
    "description": "Small volcano, northernmost of a chain of Ecuadorian volcanoes east of the principal volcanic axis.",
    "ele": "3955",
    "is_in:country": "Ecuador",
    "last_eruption": "6650 BCE",
    "name": "Soche",
    "natural": "volcano",
    "ref": "352001",
    "source:description": "Smithsonian Institute, Global Volcanism Program",
    "status": "dormant",
    "website": "www.volcano.si.edu/volcano.cfm?vn=352001",
    "wikipedia": "es:Anexo:Volcanes de Ecuador"
  }
},
{
  "type": "node",
  "id": 361404725,
  "lat": 0.9497651,
  "lon": -77.8958652,
  "tags": {
    "description": "Explosive eruptions in 1877 and 1926 are the only known major historical activity from Cumbal. Fumarole fields are found in the two summit craters, and thermal springs are located on the SE flanks.",
    "ele": "4764",
    "last_eruption": "1926",
    "name": "Volcán Cumbal",
    "name:uk": "Кумбаль",
    "natural": "volcano",
    "ref": "351100",
    "source": "SRTM",
    "source:description": "Smithsonian Institute, Global Volcanism Program",
    "volcano:status": "active",
    "volcano:type": "stratovolcano",
    "website": "volcano.si.edu/volcano.cfm?vn=351100",
    "wikipedia": "es:Cumbal (volcán)"
  }
},
{
  "type": "node",
  "id": 361305801,
  "lat": 1.0855379,
  "lon": -77.7185879,
  "tags": {
    "description": "Large-scale eruptions dating from 2,095-950 BC. Explosive volcanic activity has not been observed recently but an explosive hydrothermal event was observed in July 2009.",
    "ele": "4070",
    "is_in:country": "Colombia",
    "is_in:state": "Nariño",
    "is_in:town": "Santacruz",
    "last_eruption": "930 BCE",
    "name": "Azufral",
    "natural": "volcano",
    "ref": "351090",
    "source:description": "Smithsonian Institute, Global Volcanism Program",
    "source:last_eruption": "Smithsonian Institute, Global Volcanism Program",
    "volcano:status": "active",
    "volcano:type": "stratovolcano",
    "website": "www.volcano.si.edu/volcano.cfm?vn=351090",
    "wikipedia": "en:Azufral"
  }
},
{
  "type": "node",
  "id": 336937600,
  "lat": 1.2242669,
  "lon": -77.3557673,
  "tags": {
    "comment": "convertido a OSM usando http://GaleNUx.com",
    "description": "One of Colombia's most frequently active volcanoes. The dominantly andesitic complex has been active for more than 1 million years, and two major caldera collapse eruptions took place during the late Pleistocene. Numerous small-to-moderate historical eru",
    "divipola": "52480;52788",
    "ele": "4276",
    "is_in:country": "Colombia",
    "is_in:state": "Nariño",
    "last_eruption": "2013-05-21",
    "name": "Galeras",
    "name:ru": "Галерас",
    "name:uk": "Ґалерас",
    "natural": "volcano",
    "note": "OROGRAFIA, VOLCAN, 00ce3cd5ea48cf9431b690ed7df580c3;OROGRAFIA, VOLCAN, 51fa0a8fba32bdd02a41ebb8657dc7a3",
    "old_name": "Urcunina",
    "ref": "351080",
    "source": "OCHA Colombia 2010",
    "source:description": "Smithsonian Institute, Global Volcanism Program",
    "volcano:status": "active",
    "volcano:type": "stratovolcano",
    "website": "www.volcano.si.edu/volcano.cfm?vn=351080",
    "wikipedia": "es:Galeras (volcán)"
  }
},
{
  "type": "node",
  "id": 3389543001,
  "lat": 1.2765918,
  "lon": -77.2223811,
  "tags": {
    "name": "Volcán Morasurco",
    "natural": "volcano",
    "status": "dormant"
  }
},
{
  "type": "node",
  "id": 3390429576,
  "lat": 0.9322324,
  "lon": -77.0748227,
  "tags": {
    "name": "Cerro Patascoy",
    "natural": "volcano",
    "status": "extinct"
  }
},
{
  "type": "node",
  "id": 3390396465,
  "lat": 1.0852002,
  "lon": -77.1027224,
  "tags": {
    "name": "Volcan Mujundinoy",
    "natural": "volcano",
    "status": "dormant"
  }
},
{
  "type": "node",
  "id": 3390383356,
  "lat": 1.1370975,
  "lon": -77.1100689,
  "tags": {
    "name": "Volcán Campanero",
    "natural": "volcano",
    "status": "dormant"
  }
},
{
  "type": "node",
  "id": 3390395557,
  "lat": 1.1241409,
  "lon": -77.0139072,
  "tags": {
    "name": "Volcán Sibundoy",
    "natural": "volcano",
    "status": "dormant"
  }
},
{
  "type": "node",
  "id": 3389564885,
  "lat": 1.2084106,
  "lon": -77.1325124,
  "tags": {
    "name": "Volcán Bordoncillo",
    "natural": "volcano",
    "status": "Dormant"
  }
},
{
  "type": "node",
  "id": 703234125,
  "lat": 1.4938175,
  "lon": -76.9378268,
  "tags": {
    "comment": "convertido a OSM usando http://GaleNUx.com",
    "divipola": "19701;52258",
    "ele": "4250",
    "is_in:country": "Colombia",
    "name": "Doña Juana",
    "natural": "volcano",
    "note": "OROGRAFIA, VOLCAN, 9b536ed8b8c276fc673d0098c002974d;OROGRAFIA, VOLCAN, f636f2de09a3f88d0d7ced28c58cd0c9",
    "source": "OCHA Colombia 2010"
  }
},
{
  "type": "node",
  "id": 703234399,
  "lat": 2.1088477,
  "lon": -76.5915501,
  "tags": {
    "comment": "convertido a OSM usando http://GaleNUx.com",
    "divipola": "19760",
    "ele": "4580",
    "is_in:country": "Colombia",
    "is_in:state": "Cauca",
    "is_in:town": "Sotará",
    "name": "Sotará",
    "natural": "volcano",
    "note": "OROGRAFIA, VOLCAN, d57dfbcbf5660d7714e383e0d2509dc6",
    "source": "OCHA Colombia 2010"
  }
},
{
  "type": "node",
  "id": 703234971,
  "lat": 2.3155827,
  "lon": -76.3950136,
  "tags": {
    "comment": "convertido a OSM usando http://GaleNUx.com",
    "divipola": "19585",
    "ele": "4650",
    "is_in:country": "Colombia",
    "is_in:state": "Cauca",
    "is_in:town": "Puracé",
    "name": "Puracé",
    "name:et": "Puracé vulkaan",
    "name:ru": "Пурасе",
    "name:uk": "Пурасе",
    "natural": "volcano",
    "note": "OROGRAFIA, VOLCAN, 2b8f118e03dbe3130ee63f481ee79afe",
    "source": "OCHA Colombia 2010",
    "wikipedia": "es:Volcán Puracé"
  }
},
{
  "type": "node",
  "id": 761746868,
  "lat": 2.9292062,
  "lon": -76.0280368,
  "tags": {
    "name": "Nevado del Huila",
    "name:lt": "Uilos ugnikalnis",
    "name:ru": "Невадо-дель-Уила",
    "name:uk": "Невадо-дель-Уїла",
    "natural": "volcano",
    "source": "survey",
    "wikipedia": "es:Nevado del Huila"
  }
},
{
  "type": "node",
  "id": 4425897927,
  "lat": 4.4126211,
  "lon": -75.1985849,
  "tags": {
    "name": "Volcán Guacharacos Domo 3",
    "natural": "volcano"
  }
},
{
  "type": "node",
  "id": 4425897925,
  "lat": 4.4080213,
  "lon": -75.1957096,
  "tags": {
    "name": "Volcán Guacharacos Domo 1",
    "natural": "volcano"
  }
},
{
  "type": "node",
  "id": 4425897926,
  "lat": 4.4076790,
  "lon": -75.1922120,
  "tags": {
    "name": "Volcán Guacharacos Domo 2",
    "natural": "volcano"
  }
},
{
  "type": "node",
  "id": 309311405,
  "lat": 4.4865942,
  "lon": -75.3889848,
  "tags": {
    "condition": "active",
    "name": "Volcán Cerro Machín",
    "name:uk": "Серро-Мачін",
    "natural": "volcano",
    "type": "Stratovolcano",
    "url": "http://www.volcano.si.edu/volcano.cfm?vn=351040",
    "wikipedia": "es:Cerro Machín"
  }
},
{
  "type": "node",
  "id": 1853002362,
  "lat": 4.6587895,
  "lon": -75.3295959,
  "tags": {
    "divipola": "73043",
    "ele": "5215",
    "is_in:country": "Colombia",
    "is_in:state": "Tolima",
    "name": "Nevado del Tolima",
    "natural": "volcano",
    "note": "OROGRAFIA, NEVADO, e797a44704b81bcc2d8b6a92d27ba90c",
    "source": "OCHA Colombia 2010"
  }
},
{
  "type": "node",
  "id": 703223431,
  "lat": 4.7147237,
  "lon": -75.3879873,
  "tags": {
    "comment": "convertido a OSM usando http://GaleNUx.com",
    "condition": "dormant",
    "divipola": "73686",
    "ele": "4760",
    "is_in": "Colombia;Tolima;Santa Isabel",
    "name": "Nevado del Quindío",
    "natural": "volcano",
    "note": "OROGRAFIA, VOLCAN, bf8b957258397a73566873143ef1e884",
    "source": "OCHA Colombia 2010",
    "wikipedia": "es:Nevado del Quindío"
  }
},
{
  "type": "node",
  "id": 566695305,
  "lat": 4.8079915,
  "lon": -75.3720494,
  "tags": {
    "comment": "convertido a OSM usando http://GaleNUx.com",
    "condition": "active",
    "divipola": "73461",
    "ele": "4965",
    "is_in:country": "Colombia",
    "is_in:country_code": "CO",
    "name": "Nevado de Santa Isabel",
    "name:lt": "Santa Isabelės ugnikalnis",
    "name:uk": "Санта-Ісабель",
    "natural": "volcano",
    "source": "OCHA Colombia 2010",
    "type": "stratovolcano",
    "wikipedia": "es:Nevado de Santa Isabel"
  }
},
{
  "type": "node",
  "id": 1366302165,
  "lat": 4.8932711,
  "lon": -75.3238049,
  "tags": {
    "comment": "movido la cima al punto más alto, fuera del cráter",
    "condition": "active",
    "ele": "5321",
    "is_in:country": "Colombia",
    "is_in:country_code": "CO",
    "name": "Nevado del Ruiz",
    "name:lt": "Ruiso ugnikalnis",
    "name:ru": "Невадо-дель-Руис",
    "name:uk": "Невадо-дель-Руїс",
    "natural": "volcano",
    "old_name": "Cumanday",
    "type": "stratovolcano",
    "wikipedia": "es:Nevado del Ruiz"
  }
},
{
  "type": "node",
  "id": 332333144,
  "lat": 5.0812590,
  "lon": -75.2937526,
  "tags": {
    "condition": "active",
    "ele": "4000",
    "is_in:country": "Colombia",
    "is_in:country_code": "CO",
    "name": "Cerro Bravo",
    "natural": "volcano",
    "type": "stratovolcano",
    "wikipedia": "en:Cerro Bravo"
  }
},
{
  "type": "node",
  "id": 697803806,
  "lat": 5.2059729,
  "lon": -75.3632455,
  "tags": {
    "condition": "extinct",
    "ele": "3858",
    "is_in:country": "Colombia",
    "is_in:country_code": "CO",
    "is_in:state": "Caldas",
    "name": "Romeral",
    "natural": "volcano",
    "type": "stratovolcano",
    "wikipedia": "en:Romeral (volcano)"
  }
},
{
  "type": "node",
  "id": 3369068758,
  "lat": 5.5186057,
  "lon": -75.0432566,
  "tags": {
    "ele": "1700",
    "name": "El Escondido",
    "natural": "volcano",
    "source:url": "http://www.sgc.gov.co/Manizales/Imagenes/Volcan_Escondido_SGC.aspx"
  }
},
{
  "type": "node",
  "id": 3369068760,
  "lat": 5.6498844,
  "lon": -74.9581980,
  "tags": {
    "ele": "850",
    "name": "San Diego",
    "natural": "volcano",
    "volcano:status": "active",
    "volcano:type": "maar"
  }
},
{
  "type": "node",
  "id": 703344636,
  "lat": 5.5126683,
  "lon": -74.4227470,
  "tags": {
    "comment": "convertido a OSM usando http://GaleNUx.com",
    "divipola": "25885",
    "is_in:country": "Colombia",
    "is_in:state": "Cundinamarca",
    "is_in:town": "Yacopí",
    "name": "Amarillo",
    "natural": "volcano",
    "note": "OROGRAFIA, VOLCAN, d728476fc54aea8e5a92e9fa35022e13",
    "source": "OCHA Colombia 2010"
  }
},
{
  "type": "node",
  "id": 703487252,
  "lat": 7.2632869,
  "lon": -72.7060341,
  "tags": {
    "comment": "convertido a OSM usando http://GaleNUx.com",
    "divipola": "54125",
    "is_in:country": "Colombia",
    "is_in:state": "Norte de Santander",
    "is_in:town": "Cácota",
    "name": "Azul",
    "natural": "volcano",
    "note": "OROGRAFIA, VOLCAN, e33f8bfdf1f841ad138a95a79386469a",
    "source": "OCHA Colombia 2010"
  }
},
{
  "type": "node",
  "id": 334503673,
  "lat": 10.7445635,
  "lon": -75.2412659,
  "tags": {
    "name": "El Totumo",
    "natural": "volcano",
    "source": "local knowledge",
    "tourism": "attraction",
    "type": "mud"
  }
},
{
  "type": "node",
  "id": 1833741274,
  "lat": 10.0713956,
  "lon": -61.8811089,
  "tags": {
    "fixme": "get proper tags for mud volcano",
    "natural": "volcano"
  }
},
{
  "type": "node",
  "id": 1833741276,
  "lat": 10.0724379,
  "lon": -61.8806032,
  "tags": {
    "fixme": "get proper tags for mud volcano",
    "natural": "volcano"
  }
},
{
  "type": "node",
  "id": 3665061079,
  "lat": 12.3000000,
  "lon": -61.6400000,
  "tags": {
    "name": "Kick-'em-Jenny",
    "natural": "volcano",
    "website": "http://www.uwiseismic.com/general.aspx?id=27",
    "wikidata": "Q1740807"
  }
},
{
  "type": "node",
  "id": 281905694,
  "lat": 13.3352010,
  "lon": -61.1825378,
  "tags": {
    "ele": "1234",
    "name": "Soufriere",
    "natural": "volcano",
    "source": "Yahoo/utexas PD map",
    "volcano:status": "active",
    "volcano:type": "stratovolcano",
    "wikidata": "Q26544",
    "wikipedia": "en:Soufrière (volcano)"
  }
},
{
  "type": "node",
  "id": 2632162989,
  "lat": 13.8194962,
  "lon": -61.0594160,
  "tags": {
    "description": "Small lava dome more than 20,000 years old. Part of Soufrière Volcanic Centre.",
    "name": "Fond Doux",
    "natural": "volcano",
    "source": "http://www.uwiseismic.com/General.aspx?id=74",
    "status": "dormant"
  }
},
{
  "type": "node",
  "id": 2632161476,
  "lat": 13.8472697,
  "lon": -61.0588366,
  "tags": {
    "description": "Small lava dome more than 20,000 years old. Part of Soufrière Volcanic Centre.",
    "name": "Coubaril",
    "natural": "volcano",
    "source": "http://www.uwiseismic.com/General.aspx?id=74",
    "status": "dormant"
  }
},
{
  "type": "node",
  "id": 2632161477,
  "lat": 13.8367784,
  "lon": -61.0475697,
  "tags": {
    "description": "Small lava dome more than 20,000 years old. Part of Soufrière Volcanic Centre.",
    "name": "Rabot",
    "natural": "volcano",
    "source": "http://www.uwiseismic.com/General.aspx?id=74",
    "status": "dormant"
  }
},
{
  "type": "node",
  "id": 1224753164,
  "lat": 13.8374492,
  "lon": -61.0456835,
  "tags": {
    "ele": "777",
    "name": "Qualibou",
    "natural": "volcano",
    "volcano:status": "dormant",
    "wikidata": "Q3412754"
  }
},
{
  "type": "node",
  "id": 2632146953,
  "lat": 13.8414605,
  "lon": -61.0433922,
  "tags": {
    "description": "Small lava dome < 20,000 years old. Part of Soufrière Volcanic Centre.",
    "name": "Terre Blanche",
    "natural": "volcano",
    "source": "http://www.uwiseismic.com/General.aspx?id=74",
    "status": "dormant"
  }
},
{
  "type": "node",
  "id": 2183627153,
  "lat": 14.8091351,
  "lon": -61.1653623,
  "tags": {
    "ele": "1397",
    "name": "Montagne Pelée",
    "name:ru": "вулкан Монтань-Пеле",
    "natural": "volcano"
  }
},
{
  "type": "node",
  "id": 252861434,
  "lat": 16.0452051,
  "lon": -61.6639274,
  "tags": {
    "ele": "1467",
    "name": "La Soufrière",
    "name:ru": "вулкан Суфриер",
    "natural": "volcano"
  }
},
{
  "type": "node",
  "id": 4175227389,
  "lat": -27.6118231,
  "lon": -48.5133391,
  "tags": {
    "name": "Morro do Pantanal",
    "natural": "volcano"
  }
},
{
  "type": "node",
  "id": 1897580160,
  "lat": -22.5360331,
  "lon": -42.0360363,
  "tags": {
    "condition": "extinct",
    "ele": "726",
    "name": "Morro São João",
    "natural": "volcano",
    "type": "shield"
  }
},